{
    "nodes": [
      {
        "name": "General Edward Lawrence Logan Intl",
        "city": "Boston",
        "faa": "BOS",
        "lat": 42.364347,
        "lon": -71.005181
      },
      {
        "name":"Argentina",
        "city":"Buenos Aires",
        "faa":"EZE",
        "lat":-34.822222,
        "lon":-58.535833
      },
      {
        "id": 1,
        "name": "Metropolitan Oakland Intl",
        "city": "Oakland",
        "faa": "OAK",
        "lat": 37.721278,
        "lon": -122.220722
      },
      {
        "id": 2,
        "name": "Eppley Afld",
        "city": "Omaha",
        "faa": "OMA",
        "lat": 41.303167,
        "lon": -95.894069
      },
      {
        "id": 3,
        "name": "Wichita Mid Continent",
        "city": "Wichita",
        "faa": "ICT",
        "lat": 37.649944,
        "lon": -97.433056
      },
      {
        "id": 4,
        "name": "Kansas City Intl",
        "city": "Kansas City",
        "faa": "MCI",
        "lat": 39.297606,
        "lon": -94.713905
      },
      {
        "id": 5,
        "name": "Dane Co Rgnl Truax Fld",
        "city": "Madison",
        "faa": "MSN",
        "lat": 43.139858,
        "lon": -89.3704
      },
      {
        "id": 6,
        "name": "Phoenix Sky Harbor Intl",
        "city": "Phoenix",
        "faa": "PHX",
        "lat": 33.434278,
        "lon": -112.011583
      },
      {
        "id": 7,
        "name": "Spokane Intl",
        "city": "Spokane",
        "faa": "GEG",
        "lat": 47.619861,
        "lon": -117.533833
      },
      {
        "id": 8,
        "name": "San Francisco Intl",
        "city": "San Francisco",
        "faa": "SFO",
        "lat": 37.618972,
        "lon": -122.6989
      },
      {
        "id": 9,
        "name": "Gainesville Rgnl",
        "city": "Gainesville",
        "faa": "GNV",
        "lat": 29.690056,
        "lon": -82.271778
      },
      {
        "id": 10,
        "name": "Memphis Intl",
        "city": "Memphis",
        "faa": "MEM",
        "lat": 35.042417,
        "lon": -89.976667
      },
      {
        "id": 11,
        "name": "Los Angeles Intl",
        "city": "Los Angeles",
        "faa": "LAX",
        "lat": 33.942536,
        "lon": -118.408075
      },
      {
        "id": 12,
        "name": "Cleveland Hopkins Intl",
        "city": "Cleveland",
        "faa": "CLE",
        "lat": 41.411689,
        "lon": -81.849794
      },
      {
        "id": 13,
        "name": "Cincinnati Northern Kentucky Intl",
        "city": "Cincinnati",
        "faa": "CVG",
        "lat": 39.048836,
        "lon": -84.667822
      },
      {
        "id": 14,
        "name": "Newark Liberty Intl",
        "city": "Newark",
        "faa": "EWR",
        "lat": 40.6925,
        "lon": -74.168667
      },
      {
        "id": 15,
        "name": "Boise Air Terminal",
        "city": "Boise",
        "faa": "BOI",
        "lat": 43.564361,
        "lon": -116.222861
      },
      {
        "id": 16,
        "name": "Dallas Love Fld",
        "city": "Dallas",
        "faa": "DAL",
        "lat": 32.847111,
        "lon": -96.851778
      },
      {
        "id": 17,
        "name": "Myrtle Beach Intl",
        "city": "Myrtle Beach",
        "faa": "MYR",
        "lat": 33.67975,
        "lon": -78.928333
      },
      {
        "id": 18,
        "name": "Ronald Reagan Washington Natl",
        "city": "Washington",
        "faa": "DCA",
        "lat": 38.852083,
        "lon": -77.037722
      },
      {
        "id": 19,
        "name": "Fort Lauderdale Hollywood Intl",
        "city": "Fort Lauderdale",
        "faa": "FLL",
        "lat": 26.072583,
        "lon": -80.15275
      },
      {
        "id": 20,
        "name": "Salt Lake City Intl",
        "city": "Salt Lake City",
        "faa": "SLC",
        "lat": 40.788389,
        "lon": -111.977772
      },
      {
        "id": 21,
        "name": "Harrisburg Intl",
        "city": "Harrisburg",
        "faa": "MDT",
        "lat": 40.1914,
        "lon": -76.763403
      },
      {
        "id": 22,
        "name": "George Bush Intercontinental",
        "city": "Houston",
        "faa": "IAH",
        "lat": 29.984433,
        "lon": -95.341442
      },
      {
        "id": 23,
        "name": "El Paso Intl",
        "city": "El Paso",
        "faa": "ELP",
        "lat": 31.80725,
        "lon": -106.377583
      },
      {
        "id": 24,
        "name": "Columbia Metropolitan",
        "city": "Columbia",
        "faa": "CAE",
        "lat": 33.938833,
        "lon": -81.119528
      },
      {
        "id": 25,
        "name": "Pensacola Rgnl",
        "city": "Pensacola",
        "faa": "PNS",
        "lat": 30.473425,
        "lon": -87.186611
      },
      {
        "id": 26,
        "name": "William P Hobby",
        "city": "Houston",
        "faa": "HOU",
        "lat": 29.645419,
        "lon": -95.278889
      },
      {
        "id": 27,
        "name": "Pittsburgh Intl",
        "city": "Pittsburgh",
        "faa": "PIT",
        "lat": 40.491467,
        "lon": -80.232872
      },
      {
        "id": 28,
        "name": "Miami Intl",
        "city": "Miami",
        "faa": "MIA",
        "lat": 25.79325,
        "lon": -80.290556
      },
      {
        "id": 29,
        "name": "Seattle Tacoma Intl",
        "city": "Seattle",
        "faa": "SEA",
        "lat": 47.449,
        "lon": -122.309306
      },
      {
        "id": 30,
        "name": "Lovell Fld",
        "city": "Chattanooga",
        "faa": "CHA",
        "lat": 35.035278,
        "lon": -85.203808
      },
      {
        "id": 31,
        "name": "Jackson Evers Intl",
        "city": "Jackson",
        "faa": "JAN",
        "lat": 32.311167,
        "lon": -90.075889
      },
      {
        "id": 32,
        "name": "Long Beach",
        "city": "Long Beach",
        "faa": "LGB",
        "lat": 33.817722,
        "lon": -118.151611
      },
      {
        "id": 33,
        "name": "Indianapolis Intl",
        "city": "Indianapolis",
        "faa": "IND",
        "lat": 39.717331,
        "lon": -86.294383
      },
      {
        "id": 34,
        "name": "Westchester Co",
        "city": "White Plains",
        "faa": "HPN",
        "lat": 41.066959,
        "lon": -73.707575
      },
      {
        "id": 35,
        "name": "Richmond Intl",
        "city": "Richmond",
        "faa": "RIC",
        "lat": 37.505167,
        "lon": -77.319667
      },
      {
        "id": 36,
        "name": "Norfolk Intl",
        "city": "Norfolk",
        "faa": "ORF",
        "lat": 36.894611,
        "lon": -76.201222
      },
      {
        "id": 37,
        "name": "Savannah Hilton Head Intl",
        "city": "Savannah",
        "faa": "SAV",
        "lat": 32.127583,
        "lon": -81.202139
      },
      {
        "id": 38,
        "name": "San Antonio Intl",
        "city": "San Antonio",
        "faa": "SAT",
        "lat": 29.533694,
        "lon": -98.469778
      },
      {
        "id": 39,
        "name": "Greater Rochester Intl",
        "city": "Rochester",
        "faa": "ROC",
        "lat": 43.118866,
        "lon": -77.672389
      },
      {
        "id": 40,
        "name": "Raleigh Durham Intl",
        "city": "Raleigh-durham",
        "faa": "RDU",
        "lat": 35.877639,
        "lon": -78.787472
      },
      {
        "id": 41,
        "name": "James M Cox Dayton Intl",
        "city": "Dayton",
        "faa": "DAY",
        "lat": 39.902375,
        "lon": -84.219375
      },
      {
        "id": 42,
        "name": "Tucson Intl",
        "city": "Tucson",
        "faa": "TUS",
        "lat": 32.116083,
        "lon": -110.941028
      },
      {
        "id": 43,
        "name": "Theodore Francis Green State",
        "city": "Providence",
        "faa": "PVD",
        "lat": 41.732581,
        "lon": -71.420383
      },
      {
        "id": 44,
        "name": "Bob Hope",
        "city": "Burbank",
        "faa": "BUR",
        "lat": 34.200667,
        "lon": -118.358667
      },
      {
        "id": 45,
        "name": "Detroit Metro Wayne Co",
        "city": "Detroit",
        "faa": "DTW",
        "lat": 42.212444,
        "lon": -83.1989
      },
      {
        "id": 46,
        "name": "Tampa Intl",
        "city": "Tampa",
        "faa": "TPA",
        "lat": 27.975472,
        "lon": -82.53325
      },
      {
        "id": 47,
        "name": "Adams Fld",
        "city": "Little Rock",
        "faa": "LIT",
        "lat": 34.729444,
        "lon": -92.224306
      },
      {
        "id": 48,
        "name": "Dallas Fort Worth Intl",
        "city": "Dallas-Fort Worth",
        "faa": "DFW",
        "lat": 32.896828,
        "lon": -97.037997
      },
      {
        "id": 49,
        "name": "Austin Bergstrom Intl",
        "city": "Austin",
        "faa": "AUS",
        "lat": 30.194528,
        "lon": -97.669889
      },
      {
        "id": 50,
        "name": "Mc Ghee Tyson",
        "city": "Knoxville",
        "faa": "TYS",
        "lat": 35.810972,
        "lon": -83.994028
      },
      {
        "id": 51,
        "name": "Lambert St Louis Intl",
        "city": "St. Louis",
        "faa": "STL",
        "lat": 38.748697,
        "lon": -90.370028
      },
      {
        "id": 52,
        "name": "Hartsfield Jackson Atlanta Intl",
        "city": "Atlanta",
        "faa": "ATL",
        "lat": 33.636719,
        "lon": -84.428067
      },
      {
        "id": 53,
        "name": "Gerald R Ford Intl",
        "city": "Grand Rapids",
        "faa": "GRR",
        "lat": 42.880833,
        "lon": -85.522806
      },
      {
        "id": 54,
        "name": "Fresno Yosemite Intl",
        "city": "Fresno",
        "faa": "FAT",
        "lat": 36.776194,
        "lon": -119.71814
      },
      {
        "id": 55,
        "name": "Nashville Intl",
        "city": "Nashville",
        "faa": "BNA",
        "lat": 36.124472,
        "lon": -86.678194
      },
      {
        "id": 56,
        "name": "La Guardia",
        "city": "New York",
        "faa": "LGA",
        "lat": 40.777245,
        "lon": -73.872608
      },
      {
        "id": 57,
        "name": "Tallahassee Rgnl",
        "city": "Tallahassee",
        "faa": "TLH",
        "lat": 30.396528,
        "lon": -84.350333
      },
      {
        "id": 58,
        "name": "Burlington Intl",
        "city": "Burlington",
        "faa": "BTV",
        "lat": 44.471861,
        "lon": -73.153278
      },
      {
        "id": 59,
        "name": "Jacksonville Intl",
        "city": "Jacksonville",
        "faa": "JAX",
        "lat": 30.494056,
        "lon": -81.687861
      },
      {
        "id": 60,
        "name": "Washington Dulles Intl",
        "city": "Washington",
        "faa": "IAD",
        "lat": 38.944533,
        "lon": -77.455811
      },
      {
        "id": 61,
        "name": "General Mitchell Intl",
        "city": "Milwaukee",
        "faa": "MKE",
        "lat": 42.947222,
        "lon": -87.896583
      },
      {
        "id": 62,
        "name": "Portland Intl",
        "city": "Portland",
        "faa": "PDX",
        "lat": 45.588722,
        "lon": -122.5975
      },
      {
        "id": 63,
        "name": "Palm Beach Intl",
        "city": "West Palm Beach",
        "faa": "PBI",
        "lat": 26.683161,
        "lon": -80.095589
      },
      {
        "id": 64,
        "name": "Des Moines Intl",
        "city": "Des Moines",
        "faa": "DSM",
        "lat": 41.533972,
        "lon": -93.663083
      },
      {
        "id": 65,
        "name": "San Diego Intl",
        "city": "San Diego",
        "faa": "SAN",
        "lat": 32.733556,
        "lon": -117.189667
      },
      {
        "id": 66,
        "name": "Ontario Intl",
        "city": "Ontario",
        "faa": "ONT",
        "lat": 34.056,
        "lon": -117.601194
      },
      {
        "id": 67,
        "name": "Syracuse Hancock Intl",
        "city": "Syracuse",
        "faa": "SYR",
        "lat": 43.111187,
        "lon": -76.106311
      },
      {
        "id": 68,
        "name": "Chicago Midway Intl",
        "city": "Chicago",
        "faa": "MDW",
        "lat": 41.785972,
        "lon": -87.752417
      },
      {
        "id": 69,
        "name": "Norman Y Mineta San Jose Intl",
        "city": "San Jose",
        "faa": "SJC",
        "lat": 37.40,
        "lon": -121.929022
      },
      {
        "id": 70,
        "name": "Denver Intl",
        "city": "Denver",
        "faa": "DEN",
        "lat": 39.861656,
        "lon": -104.673178
      },
      {
        "id": 71,
        "name": "Philadelphia Intl",
        "city": "Philadelphia",
        "faa": "PHL",
        "lat": 39.871944,
        "lon": -75.21179
      },
      {
        "id": 72,
        "name": "Port Columbus Intl",
        "city": "Columbus",
        "faa": "CMH",
        "lat": 39.997972,
        "lon": -82.891889
      },
      {
        "id": 73,
        "name": "Southwest Florida Intl",
        "city": "Fort Myers",
        "faa": "RSW",
        "lat": 26.536167,
        "lon": -81.755167
      },
      {
        "id": 74,
        "name": "John F Kennedy Intl",
        "city": "New York",
        "faa": "JFK",
        "lat": 40.639751,
        "lon": -73.778925
      },
      {
        "id": 75,
        "name": "Charleston Afb Intl",
        "city": "Charleston",
        "faa": "CHS",
        "lat": 32.898647,
        "lon": -80.040528
      },
      {
        "id": 76,
        "name": "Reno Tahoe Intl",
        "city": "Reno",
        "faa": "RNO",
        "lat": 39.499108,
        "lon": -119.768108
      },
      {
        "id": 77,
        "name": "Birmingham Intl",
        "city": "Birmingham",
        "faa": "BHM",
        "lat": 33.562942,
        "lon": -86.75355
      },
      {
        "id": 78,
        "name": "Sacramento Intl",
        "city": "Sacramento",
        "faa": "SMF",
        "lat": 38.695417,
        "lon": -121.590778
      },
      {
        "id": 79,
        "name": "City Of Colorado Springs Muni",
        "city": "Colorado Springs",
        "faa": "COS",
        "lat": 38.805805,
        "lon": -104.700778
      },
      {
        "id": 80,
        "name": "Buffalo Niagara Intl",
        "city": "Buffalo",
        "faa": "BUF",
        "lat": 42.940525,
        "lon": -78.732167
      },
      {
        "id": 81,
        "name": "Bradley Intl",
        "city": "Windsor Locks",
        "faa": "BDL",
        "lat": 41.938889,
        "lon": -72.683222
      },
      {
        "id": 82,
        "name": "Chicago Ohare Intl",
        "city": "Chicago",
        "faa": "ORD",
        "lat": 41.978603,
        "lon": -87.904842
      },
      {
        "id": 83,
        "name": "Palm Springs Intl",
        "city": "Palm Springs",
        "faa": "PSP",
        "lat": 33.829667,
        "lon": -116.506694
      },
      {
        "id": 84,
        "name": "Wilmington Intl",
        "city": "Wilmington",
        "faa": "ILM",
        "lat": 34.270615,
        "lon": -77.902569
      },
      {
        "id": 85,
        "name": "Baltimore Washington Intl",
        "city": "Baltimore",
        "faa": "BWI",
        "lat": 39.175361,
        "lon": -76.668333
      },
      {
        "id": 86,
        "name": "Tulsa Intl",
        "city": "Tulsa",
        "faa": "TUL",
        "lat": 36.198389,
        "lon": -95.888111
      },
      {
        "id": 87,
        "name": "Minneapolis St Paul Intl",
        "city": "Minneapolis",
        "faa": "MSP",
        "lat": 44.881956,
        "lon": -93.221767
      },
      {
        "id": 88,
        "name": "Louis Armstrong New Orleans Intl",
        "city": "New Orleans",
        "faa": "MSY",
        "lat": 29.993389,
        "lon": -90.258028
      },
      {
        "id": 89,
        "name": "Will Rogers World",
        "city": "Oklahoma City",
        "faa": "OKC",
        "lat": 35.393089,
        "lon": -97.600733
      },
      {
        "id": 90,
        "name": "Albany Intl",
        "city": "Albany",
        "faa": "ALB",
        "lat": 42.748267,
        "lon": -73.801692
      },
      {
        "id": 91,
        "name": "John Wayne Arpt Orange Co",
        "city": "Santa Ana",
        "faa": "SNA",
        "lat": 33.675667,
        "lon": -117.868222
      },
      {
        "id": 92,
        "name": "Eglin Afb",
        "city": "Valparaiso",
        "faa": "VPS",
        "lat": 30.48325,
        "lon": -86.5254
      },
      {
        "id": 93,
        "name": "Key West Intl",
        "city": "Key West",
        "faa": "EYW",
        "lat": 24.556111,
        "lon": -81.759556
      },
      {
        "id": 94,
        "name": "Charlotte Douglas Intl",
        "city": "Charlotte",
        "faa": "CLT",
        "lat": 35.214,
        "lon": -80.943139
      },
      {
        "id": 95,
        "name": "Mc Carran Intl",
        "city": "Las Vegas",
        "faa": "LAS",
        "lat": 36.080056,
        "lon": -115.15225
      },
      {
        "id": 96,
        "name": "Orlando Intl",
        "city": "Orlando",
        "faa": "MCO",
        "lat": 28.429394,
        "lon": -81.308994
      },
      {
        "id": 97,
        "name": "Monterey Peninsula",
        "city": "Monterey",
        "faa": "MRY",
        "lat": 36.587,
        "lon": -121.842944
      },
      {
        "id": 98,
        "name": "Asheville Regional Airport",
        "city": "Asheville",
        "faa": "AVL",
        "lat": 35.436194,
        "lon": -82.541806
      },
      {
        "id": 99,
        "name": "Piedmont Triad",
        "city": "Greensboro",
        "faa": "GSO",
        "lat": 36.09775,
        "lon": -79.937306
      },
      {
        "id": 100,
        "name": "Sioux Falls",
        "city": "Sioux Falls",
        "faa": "FSD",
        "lat": 43.582014,
        "lon": -96.741914
      },
      {
        "id": 101,
        "name": "Manchester Regional Airport",
        "city": "Manchester NH",
        "faa": "MHT",
        "lat": 42.932556,
        "lon": -71.4267
      },
      {
        "id": 102,
        "name": "Louisville International Airport",
        "city": "Louisville",
        "faa": "SDF",
        "lat": 38.1740858,
        "lon": -85.7364989
      },
      {
        "id": 103,
        "name": "Charlottesville-Albemarle",
        "city": "Charlottesville VA",
        "faa": "CHO",
        "lat": 38.1899,
        "lon": -78.452861
      },
      {
        "id": 104,
        "name": "Roanoke Regional",
        "city": "Roanoke VA",
        "faa": "ROA",
        "lat": 37.325472,
        "lon": -79.975417
      },
      {
        "id": 105,
        "name": "Blue Grass",
        "city": "Lexington KY",
        "faa": "LEX",
        "lat": 38.0365,
        "lon": -84.605889
      },
      {
        "id": 106,
        "name": "Albuquerque International Sunport",
        "city": "Albuquerque",
        "faa": "ABQ",
        "lat": 35.0402222,
        "lon": -106.6091944
      },
      {
        "id": 107,
        "name": "Greenville-Spartanburg International",
        "city": "Greenville",
        "faa": "GSP",
        "lat": 34.895556,
        "lon": -82.218889
      },
      {
        "id": 108,
        "name": "Central Illinois Rgnl",
        "city": "Bloomington",
        "faa": "BMI",
        "lat": 40.477111,
        "lon": -88.915917
      },
      {
        "id": 109,
        "name": "Fort Wayne",
        "city": "Fort Wayne",
        "faa": "FWA",
        "lat": 40.978472,
        "lon": -85.195139
      },
      {
        "id": 110,
        "name": "Cedar Rapids",
        "city": "Cedar Rapids",
        "faa": "CID",
        "lat": 41.884694,
        "lon": -91.710806
      },
      {
        "id": 111,
        "name": "Peoria Regional",
        "city": "Peoria",
        "faa": "PIA",
        "lat": 40.664203,
        "lon": -89.693258
      },
      {
        "id": 112,
        "name": "Sarasota Bradenton Intl",
        "city": "Sarasota",
        "faa": "SRQ",
        "lat": 27.395444,
        "lon": -82.554389
      },
      {
        "id": 113,
        "name": "Quad City Intl",
        "city": "Moline",
        "faa": "MLI",
        "lat": 41.448528,
        "lon": -90.507539
      },
      {
        "id": 114,
        "name": "Bishop International",
        "city": "Flint",
        "faa": "FNT",
        "lat": 42.965424,
        "lon": -83.743629
      },
      {
        "id": 115,
        "name": "Mahlon Sweet Fld",
        "city": "Eugene",
        "faa": "EUG",
        "lat": 44.124583,
        "lon": -123.211972
      },
      {
        "id": 116,
        "name": "Akron Canton Regional Airport",
        "city": "Akron",
        "faa": "CAK",
        "lat": 40.9160833,
        "lon": -81.4421944
      },
      {
        "id": 117,
        "name": "Huntsville International Airport-Carl T Jones Field",
        "city": "Huntsville",
        "faa": "HSV",
        "lat": 34.6371944,
        "lon": -86.7750556
      },
      {
        "id": 118,
        "name": "Yeager",
        "city": "Charleston",
        "faa": "CRW",
        "lat": 38.6547,
        "lon": -81.593189
      },
      {
        "id": 119,
        "name": "Hector International Airport",
        "city": "Fargo",
        "faa": "FAR",
        "lat": 46.92065,
        "lon": -96.8157639
      },
      {
        "id": 120,
        "name": "Springfield Branson Natl",
        "city": "Springfield",
        "faa": "SGF",
        "lat": 37.245667,
        "lon": -93.388639
      },
      {
        "id": 121,
        "name": "Lehigh Valley Intl",
        "city": "Allentown",
        "faa": "ABE",
        "lat": 40.652083,
        "lon": -75.440806
      },
      {
        "id": 122,
        "name": "NW Arkansas Regional",
        "city": "Bentonville",
        "faa": "XNA",
        "lat": 36.2818694,
        "lon": -94.3068111
      },
      {
        "id": 123,
        "name": "South Bend Rgnl",
        "city": "South Bend",
        "faa": "SBN",
        "lat": 41.708661,
        "lon": -86.31725
      }
    ],
    "links": [
      {
        "source": 0,
        "target": 6,
        "count": 6
      },
      {
        "source": 0,
        "target": 8,
        "count": 6
      },
      {
        "source": 0,
        "target": 11,
        "count": 14
      },
      {
        "source": 0,
        "target": 18,
        "count": 6
      },
      {
        "source": 0,
        "target": 27,
        "count": 6
      },
      {
        "source": 0,
        "target": 29,
        "count": 6
      },
      {
        "source": 0,
        "target": 35,
        "count": 8
      },
      {
        "source": 0,
        "target": 48,
        "count": 8
      },
      {
        "source": 0,
        "target": 52,
        "count": 15
      },
      {
        "source": 0,
        "target": 56,
        "count": 6
      },
      {
        "source": 0,
        "target": 62,
        "count": 6
      },
      {
        "source": 0,
        "target": 65,
        "count": 6
      },
      {
        "source": 0,
        "target": 70,
        "count": 6
      },
      {
        "source": 0,
        "target": 71,
        "count": 6
      },
      {
        "source": 0,
        "target": 74,
        "count": 8
      },
      {
        "source": 0,
        "target": 80,
        "count": 6
      },
      {
        "source": 0,
        "target": 82,
        "count": 10
      },
      {
        "source": 0,
        "target": 85,
        "count": 6
      },
      {
        "source": 0,
        "target": 94,
        "count": 6
      },
      {
        "source": 0,
        "target": 96,
        "count": 8
      },
      {
        "source": 1,
        "target": 6,
        "count": 7
      },
      {
        "source": 1,
        "target": 11,
        "count": 6
      },
      {
        "source": 1,
        "target": 20,
        "count": 5
      },
      {
        "source": 1,
        "target": 29,
        "count": 7
      },
      {
        "source": 1,
        "target": 62,
        "count": 7
      },
      {
        "source": 1,
        "target": 95,
        "count": 6
      },
      {
        "source": 2,
        "target": 6,
        "count": 6
      },
      {
        "source": 2,
        "target": 18,
        "count": 6
      },
      {
        "source": 2,
        "target": 52,
        "count": 8
      },
      {
        "source": 2,
        "target": 70,
        "count": 7
      },
      {
        "source": 2,
        "target": 82,
        "count": 6
      },
      {
        "source": 3,
        "target": 52,
        "count": 8
      },
      {
        "source": 3,
        "target": 82,
        "count": 6
      },
      {
        "source": 4,
        "target": 6,
        "count": 6
      },
      {
        "source": 4,
        "target": 11,
        "count": 5
      },
      {
        "source": 4,
        "target": 18,
        "count": 6
      },
      {
        "source": 4,
        "target": 29,
        "count": 5
      },
      {
        "source": 4,
        "target": 52,
        "count": 16
      },
      {
        "source": 4,
        "target": 70,
        "count": 8
      },
      {
        "source": 4,
        "target": 71,
        "count": 5
      },
      {
        "source": 4,
        "target": 82,
        "count": 6
      },
      {
        "source": 4,
        "target": 87,
        "count": 6
      },
      {
        "source": 4,
        "target": 96,
        "count": 5
      },
      {
        "source": 5,
        "target": 52,
        "count": 6
      },
      {
        "source": 5,
        "target": 82,
        "count": 6
      },
      {
        "source": 6,
        "target": 7,
        "count": 6
      },
      {
        "source": 6,
        "target": 8,
        "count": 8
      },
      {
        "source": 6,
        "target": 11,
        "count": 12
      },
      {
        "source": 6,
        "target": 14,
        "count": 8
      },
      {
        "source": 6,
        "target": 15,
        "count": 6
      },
      {
        "source": 6,
        "target": 19,
        "count": 8
      },
      {
        "source": 6,
        "target": 20,
        "count": 8
      },
      {
        "source": 6,
        "target": 22,
        "count": 6
      },
      {
        "source": 6,
        "target": 23,
        "count": 6
      },
      {
        "source": 6,
        "target": 27,
        "count": 6
      },
      {
        "source": 6,
        "target": 29,
        "count": 9
      },
      {
        "source": 6,
        "target": 33,
        "count": 6
      },
      {
        "source": 6,
        "target": 38,
        "count": 7
      },
      {
        "source": 6,
        "target": 44,
        "count": 6
      },
      {
        "source": 6,
        "target": 45,
        "count": 8
      },
      {
        "source": 6,
        "target": 46,
        "count": 7
      },
      {
        "source": 6,
        "target": 48,
        "count": 6
      },
      {
        "source": 6,
        "target": 49,
        "count": 6
      },
      {
        "source": 6,
        "target": 51,
        "count": 6
      },
      {
        "source": 6,
        "target": 52,
        "count": 18
      },
      {
        "source": 6,
        "target": 61,
        "count": 7
      },
      {
        "source": 6,
        "target": 62,
        "count": 9
      },
      {
        "source": 6,
        "target": 64,
        "count": 5
      },
      {
        "source": 6,
        "target": 65,
        "count": 8
      },
      {
        "source": 6,
        "target": 66,
        "count": 7
      },
      {
        "source": 6,
        "target": 69,
        "count": 7
      },
      {
        "source": 6,
        "target": 70,
        "count": 14
      },
      {
        "source": 6,
        "target": 71,
        "count": 8
      },
      {
        "source": 6,
        "target": 72,
        "count": 6
      },
      {
        "source": 6,
        "target": 74,
        "count": 8
      },
      {
        "source": 6,
        "target": 76,
        "count": 6
      },
      {
        "source": 6,
        "target": 78,
        "count": 7
      },
      {
        "source": 6,
        "target": 82,
        "count": 6
      },
      {
        "source": 6,
        "target": 85,
        "count": 7
      },
      {
        "source": 6,
        "target": 87,
        "count": 11
      },
      {
        "source": 6,
        "target": 91,
        "count": 8
      },
      {
        "source": 6,
        "target": 95,
        "count": 8
      },
      {
        "source": 6,
        "target": 96,
        "count": 7
      },
      {
        "source": 6,
        "target": 106,
        "count": 7
      },
      {
        "source": 7,
        "target": 70,
        "count": 8
      },
      {
        "source": 8,
        "target": 11,
        "count": 14
      },
      {
        "source": 8,
        "target": 19,
        "count": 7
      },
      {
        "source": 8,
        "target": 28,
        "count": 6
      },
      {
        "source": 8,
        "target": 29,
        "count": 11
      },
      {
        "source": 8,
        "target": 48,
        "count": 10
      },
      {
        "source": 8,
        "target": 49,
        "count": 6
      },
      {
        "source": 8,
        "target": 52,
        "count": 20
      },
      {
        "source": 8,
        "target": 62,
        "count": 8
      },
      {
        "source": 8,
        "target": 65,
        "count": 6
      },
      {
        "source": 8,
        "target": 70,
        "count": 7
      },
      {
        "source": 8,
        "target": 71,
        "count": 8
      },
      {
        "source": 8,
        "target": 74,
        "count": 14
      },
      {
        "source": 8,
        "target": 82,
        "count": 10
      },
      {
        "source": 8,
        "target": 83,
        "count": 9
      },
      {
        "source": 8,
        "target": 87,
        "count": 8
      },
      {
        "source": 8,
        "target": 91,
        "count": 5
      },
      {
        "source": 8,
        "target": 95,
        "count": 8
      },
      {
        "source": 9,
        "target": 52,
        "count": 8
      },
      {
        "source": 10,
        "target": 18,
        "count": 6
      },
      {
        "source": 10,
        "target": 48,
        "count": 6
      },
      {
        "source": 10,
        "target": 52,
        "count": 14
      },
      {
        "source": 10,
        "target": 70,
        "count": 6
      },
      {
        "source": 10,
        "target": 82,
        "count": 8
      },
      {
        "source": 10,
        "target": 96,
        "count": 6
      },
      {
        "source": 11,
        "target": 18,
        "count": 8
      },
      {
        "source": 11,
        "target": 19,
        "count": 6
      },
      {
        "source": 11,
        "target": 20,
        "count": 12
      },
      {
        "source": 11,
        "target": 22,
        "count": 10
      },
      {
        "source": 11,
        "target": 23,
        "count": 9
      },
      {
        "source": 11,
        "target": 27,
        "count": 8
      },
      {
        "source": 11,
        "target": 28,
        "count": 8
      },
      {
        "source": 11,
        "target": 29,
        "count": 10
      },
      {
        "source": 11,
        "target": 33,
        "count": 8
      },
      {
        "source": 11,
        "target": 38,
        "count": 5
      },
      {
        "source": 11,
        "target": 40,
        "count": 8
      },
      {
        "source": 11,
        "target": 42,
        "count": 11
      },
      {
        "source": 11,
        "target": 45,
        "count": 5
      },
      {
        "source": 11,
        "target": 48,
        "count": 12
      },
      {
        "source": 11,
        "target": 49,
        "count": 10
      },
      {
        "source": 11,
        "target": 51,
        "count": 9
      },
      {
        "source": 11,
        "target": 52,
        "count": 19
      },
      {
        "source": 11,
        "target": 54,
        "count": 8
      },
      {
        "source": 11,
        "target": 55,
        "count": 10
      },
      {
        "source": 11,
        "target": 60,
        "count": 8
      },
      {
        "source": 11,
        "target": 62,
        "count": 8
      },
      {
        "source": 11,
        "target": 65,
        "count": 10
      },
      {
        "source": 11,
        "target": 69,
        "count": 15
      },
      {
        "source": 11,
        "target": 70,
        "count": 14
      },
      {
        "source": 11,
        "target": 71,
        "count": 6
      },
      {
        "source": 11,
        "target": 72,
        "count": 8
      },
      {
        "source": 11,
        "target": 74,
        "count": 16
      },
      {
        "source": 11,
        "target": 76,
        "count": 11
      },
      {
        "source": 11,
        "target": 78,
        "count": 13
      },
      {
        "source": 11,
        "target": 81,
        "count": 6
      },
      {
        "source": 11,
        "target": 82,
        "count": 13
      },
      {
        "source": 11,
        "target": 85,
        "count": 5
      },
      {
        "source": 11,
        "target": 87,
        "count": 13
      },
      {
        "source": 11,
        "target": 88,
        "count": 18
      },
      {
        "source": 11,
        "target": 89,
        "count": 8
      },
      {
        "source": 11,
        "target": 95,
        "count": 18
      },
      {
        "source": 11,
        "target": 96,
        "count": 12
      },
      {
        "source": 11,
        "target": 97,
        "count": 8
      },
      {
        "source": 11,
        "target": 106,
        "count": 10
      },
      {
        "source": 11,
        "target": 115,
        "count": 6
      },
      {
        "source": 12,
        "target": 48,
        "count": 6
      },
      {
        "source": 12,
        "target": 52,
        "count": 11
      },
      {
        "source": 12,
        "target": 70,
        "count": 5
      },
      {
        "source": 12,
        "target": 74,
        "count": 6
      },
      {
        "source": 12,
        "target": 82,
        "count": 6
      },
      {
        "source": 12,
        "target": 85,
        "count": 5
      },
      {
        "source": 12,
        "target": 94,
        "count": 6
      },
      {
        "source": 13,
        "target": 18,
        "count": 6
      },
      {
        "source": 13,
        "target": 48,
        "count": 6
      },
      {
        "source": 13,
        "target": 52,
        "count": 14
      },
      {
        "source": 13,
        "target": 70,
        "count": 6
      },
      {
        "source": 13,
        "target": 71,
        "count": 6
      },
      {
        "source": 13,
        "target": 74,
        "count": 6
      },
      {
        "source": 13,
        "target": 82,
        "count": 8
      },
      {
        "source": 13,
        "target": 94,
        "count": 6
      },
      {
        "source": 14,
        "target": 28,
        "count": 6
      },
      {
        "source": 14,
        "target": 29,
        "count": 6
      },
      {
        "source": 14,
        "target": 48,
        "count": 6
      },
      {
        "source": 14,
        "target": 52,
        "count": 14
      },
      {
        "source": 14,
        "target": 55,
        "count": 5
      },
      {
        "source": 14,
        "target": 82,
        "count": 6
      },
      {
        "source": 14,
        "target": 88,
        "count": 10
      },
      {
        "source": 14,
        "target": 94,
        "count": 6
      },
      {
        "source": 15,
        "target": 70,
        "count": 5
      },
      {
        "source": 16,
        "target": 52,
        "count": 8
      },
      {
        "source": 17,
        "target": 52,
        "count": 8
      },
      {
        "source": 17,
        "target": 71,
        "count": 6
      },
      {
        "source": 18,
        "target": 19,
        "count": 6
      },
      {
        "source": 18,
        "target": 45,
        "count": 6
      },
      {
        "source": 18,
        "target": 46,
        "count": 6
      },
      {
        "source": 18,
        "target": 51,
        "count": 6
      },
      {
        "source": 18,
        "target": 52,
        "count": 14
      },
      {
        "source": 18,
        "target": 56,
        "count": 6
      },
      {
        "source": 18,
        "target": 73,
        "count": 8
      },
      {
        "source": 18,
        "target": 74,
        "count": 6
      },
      {
        "source": 18,
        "target": 82,
        "count": 6
      },
      {
        "source": 18,
        "target": 87,
        "count": 8
      },
      {
        "source": 18,
        "target": 96,
        "count": 6
      },
      {
        "source": 19,
        "target": 40,
        "count": 6
      },
      {
        "source": 19,
        "target": 46,
        "count": 10
      },
      {
        "source": 19,
        "target": 48,
        "count": 6
      },
      {
        "source": 19,
        "target": 49,
        "count": 5
      },
      {
        "source": 19,
        "target": 52,
        "count": 16
      },
      {
        "source": 19,
        "target": 56,
        "count": 6
      },
      {
        "source": 19,
        "target": 70,
        "count": 8
      },
      {
        "source": 19,
        "target": 71,
        "count": 7
      },
      {
        "source": 19,
        "target": 82,
        "count": 8
      },
      {
        "source": 19,
        "target": 85,
        "count": 6
      },
      {
        "source": 19,
        "target": 96,
        "count": 6
      },
      {
        "source": 20,
        "target": 29,
        "count": 8
      },
      {
        "source": 20,
        "target": 48,
        "count": 6
      },
      {
        "source": 20,
        "target": 52,
        "count": 12
      },
      {
        "source": 20,
        "target": 62,
        "count": 7
      },
      {
        "source": 20,
        "target": 70,
        "count": 9
      },
      {
        "source": 20,
        "target": 71,
        "count": 6
      },
      {
        "source": 20,
        "target": 82,
        "count": 8
      },
      {
        "source": 20,
        "target": 85,
        "count": 6
      },
      {
        "source": 20,
        "target": 94,
        "count": 6
      },
      {
        "source": 20,
        "target": 95,
        "count": 6
      },
      {
        "source": 21,
        "target": 52,
        "count": 7
      },
      {
        "source": 21,
        "target": 82,
        "count": 6
      },
      {
        "source": 22,
        "target": 28,
        "count": 6
      },
      {
        "source": 22,
        "target": 29,
        "count": 7
      },
      {
        "source": 22,
        "target": 45,
        "count": 6
      },
      {
        "source": 22,
        "target": 48,
        "count": 6
      },
      {
        "source": 22,
        "target": 52,
        "count": 18
      },
      {
        "source": 22,
        "target": 70,
        "count": 6
      },
      {
        "source": 22,
        "target": 71,
        "count": 6
      },
      {
        "source": 22,
        "target": 82,
        "count": 8
      },
      {
        "source": 22,
        "target": 87,
        "count": 6
      },
      {
        "source": 22,
        "target": 88,
        "count": 8
      },
      {
        "source": 22,
        "target": 94,
        "count": 6
      },
      {
        "source": 23,
        "target": 52,
        "count": 7
      },
      {
        "source": 24,
        "target": 52,
        "count": 8
      },
      {
        "source": 25,
        "target": 52,
        "count": 10
      },
      {
        "source": 26,
        "target": 52,
        "count": 12
      },
      {
        "source": 27,
        "target": 48,
        "count": 5
      },
      {
        "source": 27,
        "target": 52,
        "count": 14
      },
      {
        "source": 27,
        "target": 56,
        "count": 6
      },
      {
        "source": 27,
        "target": 74,
        "count": 6
      },
      {
        "source": 27,
        "target": 82,
        "count": 6
      },
      {
        "source": 27,
        "target": 96,
        "count": 6
      },
      {
        "source": 28,
        "target": 45,
        "count": 6
      },
      {
        "source": 28,
        "target": 52,
        "count": 24
      },
      {
        "source": 28,
        "target": 56,
        "count": 6
      },
      {
        "source": 28,
        "target": 60,
        "count": 6
      },
      {
        "source": 28,
        "target": 70,
        "count": 6
      },
      {
        "source": 28,
        "target": 74,
        "count": 6
      },
      {
        "source": 28,
        "target": 82,
        "count": 6
      },
      {
        "source": 28,
        "target": 85,
        "count": 5
      },
      {
        "source": 28,
        "target": 87,
        "count": 6
      },
      {
        "source": 28,
        "target": 88,
        "count": 10
      },
      {
        "source": 29,
        "target": 32,
        "count": 6
      },
      {
        "source": 29,
        "target": 48,
        "count": 6
      },
      {
        "source": 29,
        "target": 52,
        "count": 12
      },
      {
        "source": 29,
        "target": 65,
        "count": 7
      },
      {
        "source": 29,
        "target": 69,
        "count": 6
      },
      {
        "source": 29,
        "target": 70,
        "count": 11
      },
      {
        "source": 29,
        "target": 71,
        "count": 6
      },
      {
        "source": 29,
        "target": 74,
        "count": 10
      },
      {
        "source": 29,
        "target": 78,
        "count": 9
      },
      {
        "source": 29,
        "target": 82,
        "count": 8
      },
      {
        "source": 29,
        "target": 87,
        "count": 8
      },
      {
        "source": 29,
        "target": 95,
        "count": 8
      },
      {
        "source": 30,
        "target": 52,
        "count": 10
      },
      {
        "source": 31,
        "target": 52,
        "count": 10
      },
      {
        "source": 32,
        "target": 62,
        "count": 6
      },
      {
        "source": 33,
        "target": 46,
        "count": 6
      },
      {
        "source": 33,
        "target": 52,
        "count": 18
      },
      {
        "source": 33,
        "target": 70,
        "count": 8
      },
      {
        "source": 33,
        "target": 74,
        "count": 6
      },
      {
        "source": 33,
        "target": 82,
        "count": 6
      },
      {
        "source": 33,
        "target": 96,
        "count": 6
      },
      {
        "source": 34,
        "target": 52,
        "count": 6
      },
      {
        "source": 34,
        "target": 82,
        "count": 6
      },
      {
        "source": 35,
        "target": 52,
        "count": 14
      },
      {
        "source": 35,
        "target": 56,
        "count": 6
      },
      {
        "source": 35,
        "target": 82,
        "count": 6
      },
      {
        "source": 35,
        "target": 96,
        "count": 6
      },
      {
        "source": 36,
        "target": 52,
        "count": 14
      },
      {
        "source": 36,
        "target": 56,
        "count": 6
      },
      {
        "source": 36,
        "target": 74,
        "count": 6
      },
      {
        "source": 36,
        "target": 96,
        "count": 6
      },
      {
        "source": 37,
        "target": 52,
        "count": 12
      },
      {
        "source": 38,
        "target": 52,
        "count": 14
      },
      {
        "source": 38,
        "target": 70,
        "count": 6
      },
      {
        "source": 38,
        "target": 82,
        "count": 6
      },
      {
        "source": 38,
        "target": 96,
        "count": 6
      },
      {
        "source": 39,
        "target": 52,
        "count": 8
      },
      {
        "source": 39,
        "target": 82,
        "count": 6
      },
      {
        "source": 40,
        "target": 46,
        "count": 6
      },
      {
        "source": 40,
        "target": 52,
        "count": 18
      },
      {
        "source": 40,
        "target": 56,
        "count": 6
      },
      {
        "source": 40,
        "target": 71,
        "count": 6
      },
      {
        "source": 40,
        "target": 74,
        "count": 8
      },
      {
        "source": 40,
        "target": 82,
        "count": 6
      },
      {
        "source": 40,
        "target": 85,
        "count": 6
      },
      {
        "source": 40,
        "target": 95,
        "count": 5
      },
      {
        "source": 40,
        "target": 96,
        "count": 6
      },
      {
        "source": 41,
        "target": 52,
        "count": 12
      },
      {
        "source": 41,
        "target": 56,
        "count": 6
      },
      {
        "source": 41,
        "target": 82,
        "count": 6
      },
      {
        "source": 42,
        "target": 52,
        "count": 10
      },
      {
        "source": 42,
        "target": 70,
        "count": 5
      },
      {
        "source": 43,
        "target": 52,
        "count": 6
      },
      {
        "source": 43,
        "target": 96,
        "count": 6
      },
      {
        "source": 45,
        "target": 48,
        "count": 8
      },
      {
        "source": 45,
        "target": 51,
        "count": 5
      },
      {
        "source": 45,
        "target": 52,
        "count": 16
      },
      {
        "source": 45,
        "target": 56,
        "count": 8
      },
      {
        "source": 45,
        "target": 68,
        "count": 6
      },
      {
        "source": 45,
        "target": 70,
        "count": 10
      },
      {
        "source": 45,
        "target": 71,
        "count": 6
      },
      {
        "source": 45,
        "target": 82,
        "count": 8
      },
      {
        "source": 45,
        "target": 85,
        "count": 6
      },
      {
        "source": 45,
        "target": 88,
        "count": 9
      },
      {
        "source": 45,
        "target": 94,
        "count": 6
      },
      {
        "source": 45,
        "target": 95,
        "count": 6
      },
      {
        "source": 46,
        "target": 48,
        "count": 6
      },
      {
        "source": 46,
        "target": 52,
        "count": 15
      },
      {
        "source": 46,
        "target": 70,
        "count": 7
      },
      {
        "source": 46,
        "target": 71,
        "count": 6
      },
      {
        "source": 46,
        "target": 72,
        "count": 5
      },
      {
        "source": 46,
        "target": 74,
        "count": 8
      },
      {
        "source": 46,
        "target": 81,
        "count": 5
      },
      {
        "source": 46,
        "target": 82,
        "count": 8
      },
      {
        "source": 46,
        "target": 93,
        "count": 8
      },
      {
        "source": 47,
        "target": 52,
        "count": 8
      },
      {
        "source": 47,
        "target": 82,
        "count": 6
      },
      {
        "source": 48,
        "target": 49,
        "count": 5
      },
      {
        "source": 48,
        "target": 51,
        "count": 5
      },
      {
        "source": 48,
        "target": 52,
        "count": 21
      },
      {
        "source": 48,
        "target": 56,
        "count": 8
      },
      {
        "source": 48,
        "target": 60,
        "count": 6
      },
      {
        "source": 48,
        "target": 62,
        "count": 8
      },
      {
        "source": 48,
        "target": 65,
        "count": 8
      },
      {
        "source": 48,
        "target": 70,
        "count": 10
      },
      {
        "source": 48,
        "target": 71,
        "count": 6
      },
      {
        "source": 48,
        "target": 73,
        "count": 5
      },
      {
        "source": 48,
        "target": 74,
        "count": 6
      },
      {
        "source": 48,
        "target": 82,
        "count": 8
      },
      {
        "source": 48,
        "target": 85,
        "count": 6
      },
      {
        "source": 48,
        "target": 87,
        "count": 10
      },
      {
        "source": 48,
        "target": 88,
        "count": 12
      },
      {
        "source": 48,
        "target": 91,
        "count": 6
      },
      {
        "source": 48,
        "target": 95,
        "count": 6
      },
      {
        "source": 48,
        "target": 96,
        "count": 6
      },
      {
        "source": 49,
        "target": 52,
        "count": 14
      },
      {
        "source": 49,
        "target": 70,
        "count": 7
      },
      {
        "source": 49,
        "target": 74,
        "count": 8
      },
      {
        "source": 49,
        "target": 82,
        "count": 6
      },
      {
        "source": 49,
        "target": 88,
        "count": 5
      },
      {
        "source": 49,
        "target": 95,
        "count": 5
      },
      {
        "source": 49,
        "target": 96,
        "count": 8
      },
      {
        "source": 50,
        "target": 52,
        "count": 12
      },
      {
        "source": 50,
        "target": 56,
        "count": 6
      },
      {
        "source": 50,
        "target": 82,
        "count": 6
      },
      {
        "source": 51,
        "target": 52,
        "count": 16
      },
      {
        "source": 51,
        "target": 56,
        "count": 8
      },
      {
        "source": 51,
        "target": 70,
        "count": 7
      },
      {
        "source": 51,
        "target": 71,
        "count": 7
      },
      {
        "source": 51,
        "target": 82,
        "count": 6
      },
      {
        "source": 51,
        "target": 87,
        "count": 6
      },
      {
        "source": 52,
        "target": 53,
        "count": 6
      },
      {
        "source": 52,
        "target": 55,
        "count": 13
      },
      {
        "source": 52,
        "target": 56,
        "count": 15
      },
      {
        "source": 52,
        "target": 57,
        "count": 6
      },
      {
        "source": 52,
        "target": 58,
        "count": 5
      },
      {
        "source": 52,
        "target": 59,
        "count": 18
      },
      {
        "source": 52,
        "target": 60,
        "count": 18
      },
      {
        "source": 52,
        "target": 61,
        "count": 13
      },
      {
        "source": 52,
        "target": 62,
        "count": 9
      },
      {
        "source": 52,
        "target": 63,
        "count": 16
      },
      {
        "source": 52,
        "target": 64,
        "count": 6
      },
      {
        "source": 52,
        "target": 65,
        "count": 16
      },
      {
        "source": 52,
        "target": 67,
        "count": 8
      },
      {
        "source": 52,
        "target": 68,
        "count": 10
      },
      {
        "source": 52,
        "target": 69,
        "count": 5
      },
      {
        "source": 52,
        "target": 70,
        "count": 22
      },
      {
        "source": 52,
        "target": 71,
        "count": 18
      },
      {
        "source": 52,
        "target": 72,
        "count": 16
      },
      {
        "source": 52,
        "target": 73,
        "count": 16
      },
      {
        "source": 52,
        "target": 74,
        "count": 17
      },
      {
        "source": 52,
        "target": 75,
        "count": 13
      },
      {
        "source": 52,
        "target": 77,
        "count": 12
      },
      {
        "source": 52,
        "target": 78,
        "count": 8
      },
      {
        "source": 52,
        "target": 79,
        "count": 5
      },
      {
        "source": 52,
        "target": 80,
        "count": 8
      },
      {
        "source": 52,
        "target": 81,
        "count": 14
      },
      {
        "source": 52,
        "target": 82,
        "count": 39
      },
      {
        "source": 52,
        "target": 84,
        "count": 8
      },
      {
        "source": 52,
        "target": 85,
        "count": 14
      },
      {
        "source": 52,
        "target": 86,
        "count": 8
      },
      {
        "source": 52,
        "target": 87,
        "count": 15
      },
      {
        "source": 52,
        "target": 88,
        "count": 18
      },
      {
        "source": 52,
        "target": 89,
        "count": 13
      },
      {
        "source": 52,
        "target": 90,
        "count": 9
      },
      {
        "source": 52,
        "target": 91,
        "count": 8
      },
      {
        "source": 52,
        "target": 92,
        "count": 7
      },
      {
        "source": 52,
        "target": 93,
        "count": 6
      },
      {
        "source": 52,
        "target": 94,
        "count": 16
      },
      {
        "source": 52,
        "target": 95,
        "count": 14
      },
      {
        "source": 52,
        "target": 96,
        "count": 16
      },
      {
        "source": 52,
        "target": 98,
        "count": 8
      },
      {
        "source": 52,
        "target": 99,
        "count": 11
      },
      {
        "source": 52,
        "target": 101,
        "count": 5
      },
      {
        "source": 52,
        "target": 102,
        "count": 12
      },
      {
        "source": 52,
        "target": 103,
        "count": 6
      },
      {
        "source": 52,
        "target": 104,
        "count": 8
      },
      {
        "source": 52,
        "target": 105,
        "count": 8
      },
      {
        "source": 52,
        "target": 106,
        "count": 10
      },
      {
        "source": 52,
        "target": 107,
        "count": 9
      },
      {
        "source": 52,
        "target": 108,
        "count": 6
      },
      {
        "source": 52,
        "target": 109,
        "count": 8
      },
      {
        "source": 52,
        "target": 110,
        "count": 7
      },
      {
        "source": 52,
        "target": 111,
        "count": 6
      },
      {
        "source": 52,
        "target": 112,
        "count": 10
      },
      {
        "source": 52,
        "target": 113,
        "count": 6
      },
      {
        "source": 52,
        "target": 114,
        "count": 6
      },
      {
        "source": 52,
        "target": 116,
        "count": 10
      },
      {
        "source": 52,
        "target": 117,
        "count": 10
      },
      {
        "source": 52,
        "target": 118,
        "count": 8
      },
      {
        "source": 52,
        "target": 120,
        "count": 6
      },
      {
        "source": 52,
        "target": 121,
        "count": 6
      },
      {
        "source": 52,
        "target": 122,
        "count": 10
      },
      {
        "source": 52,
        "target": 123,
        "count": 6
      },
      {
        "source": 53,
        "target": 82,
        "count": 6
      },
      {
        "source": 55,
        "target": 56,
        "count": 8
      },
      {
        "source": 55,
        "target": 70,
        "count": 7
      },
      {
        "source": 55,
        "target": 71,
        "count": 6
      },
      {
        "source": 55,
        "target": 74,
        "count": 6
      },
      {
        "source": 55,
        "target": 82,
        "count": 6
      },
      {
        "source": 55,
        "target": 96,
        "count": 6
      },
      {
        "source": 56,
        "target": 63,
        "count": 8
      },
      {
        "source": 56,
        "target": 70,
        "count": 8
      },
      {
        "source": 56,
        "target": 72,
        "count": 6
      },
      {
        "source": 56,
        "target": 82,
        "count": 10
      },
      {
        "source": 56,
        "target": 84,
        "count": 6
      },
      {
        "source": 56,
        "target": 88,
        "count": 6
      },
      {
        "source": 56,
        "target": 94,
        "count": 6
      },
      {
        "source": 56,
        "target": 99,
        "count": 6
      },
      {
        "source": 56,
        "target": 102,
        "count": 6
      },
      {
        "source": 56,
        "target": 103,
        "count": 6
      },
      {
        "source": 59,
        "target": 82,
        "count": 6
      },
      {
        "source": 60,
        "target": 70,
        "count": 5
      },
      {
        "source": 60,
        "target": 74,
        "count": 6
      },
      {
        "source": 60,
        "target": 88,
        "count": 6
      },
      {
        "source": 60,
        "target": 94,
        "count": 6
      },
      {
        "source": 61,
        "target": 70,
        "count": 8
      },
      {
        "source": 61,
        "target": 82,
        "count": 6
      },
      {
        "source": 61,
        "target": 87,
        "count": 6
      },
      {
        "source": 61,
        "target": 96,
        "count": 6
      },
      {
        "source": 62,
        "target": 65,
        "count": 6
      },
      {
        "source": 62,
        "target": 69,
        "count": 6
      },
      {
        "source": 62,
        "target": 70,
        "count": 7
      },
      {
        "source": 62,
        "target": 82,
        "count": 8
      },
      {
        "source": 62,
        "target": 95,
        "count": 6
      },
      {
        "source": 62,
        "target": 115,
        "count": 5
      },
      {
        "source": 64,
        "target": 82,
        "count": 6
      },
      {
        "source": 65,
        "target": 70,
        "count": 8
      },
      {
        "source": 65,
        "target": 74,
        "count": 12
      },
      {
        "source": 65,
        "target": 82,
        "count": 8
      },
      {
        "source": 65,
        "target": 87,
        "count": 6
      },
      {
        "source": 65,
        "target": 95,
        "count": 6
      },
      {
        "source": 66,
        "target": 70,
        "count": 6
      },
      {
        "source": 67,
        "target": 82,
        "count": 6
      },
      {
        "source": 68,
        "target": 70,
        "count": 6
      },
      {
        "source": 68,
        "target": 87,
        "count": 8
      },
      {
        "source": 69,
        "target": 70,
        "count": 5
      },
      {
        "source": 70,
        "target": 71,
        "count": 9
      },
      {
        "source": 70,
        "target": 72,
        "count": 5
      },
      {
        "source": 70,
        "target": 76,
        "count": 5
      },
      {
        "source": 70,
        "target": 78,
        "count": 6
      },
      {
        "source": 70,
        "target": 82,
        "count": 8
      },
      {
        "source": 70,
        "target": 85,
        "count": 6
      },
      {
        "source": 70,
        "target": 86,
        "count": 5
      },
      {
        "source": 70,
        "target": 87,
        "count": 12
      },
      {
        "source": 70,
        "target": 88,
        "count": 10
      },
      {
        "source": 70,
        "target": 89,
        "count": 8
      },
      {
        "source": 70,
        "target": 91,
        "count": 8
      },
      {
        "source": 70,
        "target": 95,
        "count": 10
      },
      {
        "source": 70,
        "target": 96,
        "count": 8
      },
      {
        "source": 70,
        "target": 106,
        "count": 6
      },
      {
        "source": 71,
        "target": 73,
        "count": 6
      },
      {
        "source": 71,
        "target": 82,
        "count": 6
      },
      {
        "source": 71,
        "target": 87,
        "count": 6
      },
      {
        "source": 71,
        "target": 95,
        "count": 8
      },
      {
        "source": 71,
        "target": 96,
        "count": 8
      },
      {
        "source": 72,
        "target": 74,
        "count": 6
      },
      {
        "source": 72,
        "target": 82,
        "count": 6
      },
      {
        "source": 73,
        "target": 82,
        "count": 8
      },
      {
        "source": 74,
        "target": 82,
        "count": 10
      },
      {
        "source": 74,
        "target": 85,
        "count": 6
      },
      {
        "source": 74,
        "target": 88,
        "count": 22
      },
      {
        "source": 74,
        "target": 94,
        "count": 8
      },
      {
        "source": 74,
        "target": 95,
        "count": 16
      },
      {
        "source": 74,
        "target": 96,
        "count": 8
      },
      {
        "source": 76,
        "target": 95,
        "count": 5
      },
      {
        "source": 77,
        "target": 96,
        "count": 6
      },
      {
        "source": 80,
        "target": 82,
        "count": 6
      },
      {
        "source": 80,
        "target": 96,
        "count": 6
      },
      {
        "source": 81,
        "target": 82,
        "count": 6
      },
      {
        "source": 81,
        "target": 96,
        "count": 8
      },
      {
        "source": 82,
        "target": 85,
        "count": 6
      },
      {
        "source": 82,
        "target": 86,
        "count": 6
      },
      {
        "source": 82,
        "target": 87,
        "count": 10
      },
      {
        "source": 82,
        "target": 88,
        "count": 21
      },
      {
        "source": 82,
        "target": 89,
        "count": 6
      },
      {
        "source": 82,
        "target": 91,
        "count": 6
      },
      {
        "source": 82,
        "target": 94,
        "count": 6
      },
      {
        "source": 82,
        "target": 95,
        "count": 8
      },
      {
        "source": 82,
        "target": 96,
        "count": 8
      },
      {
        "source": 82,
        "target": 100,
        "count": 6
      },
      {
        "source": 82,
        "target": 102,
        "count": 6
      },
      {
        "source": 82,
        "target": 105,
        "count": 6
      },
      {
        "source": 82,
        "target": 106,
        "count": 6
      },
      {
        "source": 82,
        "target": 109,
        "count": 6
      },
      {
        "source": 82,
        "target": 110,
        "count": 6
      },
      {
        "source": 82,
        "target": 111,
        "count": 6
      },
      {
        "source": 82,
        "target": 113,
        "count": 6
      },
      {
        "source": 82,
        "target": 117,
        "count": 6
      },
      {
        "source": 82,
        "target": 119,
        "count": 6
      },
      {
        "source": 82,
        "target": 120,
        "count": 6
      },
      {
        "source": 82,
        "target": 122,
        "count": 6
      },
      {
        "source": 85,
        "target": 94,
        "count": 8
      },
      {
        "source": 85,
        "target": 95,
        "count": 6
      },
      {
        "source": 87,
        "target": 88,
        "count": 7
      },
      {
        "source": 87,
        "target": 94,
        "count": 6
      },
      {
        "source": 87,
        "target": 95,
        "count": 6
      },
      {
        "source": 87,
        "target": 96,
        "count": 8
      },
      {
        "source": 94,
        "target": 96,
        "count": 8
      },
      {
        "source": 96,
        "target": 102,
        "count": 6
      }
    ]
  }
