{
    "nodes": [
      {
        "id": 2048,
        "name": "Herat Airport",
        "city": "Herat",
        "country": "Afghanistan",
        "faa": "OAHR",
        "lat": 34.20999908,
        "lon": 62.22829819
      },
      {
        "id": 2049,
        "name": "Jalalabad Airport",
        "city": "Jalalabad",
        "country": "Afghanistan",
        "faa": "OAJL",
        "lat": 34.39979935,
        "lon": 70.49859619
      },
      {
        "id": 2050,
        "name": "Hamid Karzai International Airport",
        "city": "Kabul",
        "country": "Afghanistan",
        "faa": "OAKB",
        "lat": 34.565899,
        "lon": 69.212303
      },
      {
        "id": 2051,
        "name": "Kandahar Airport",
        "city": "Kandahar",
        "country": "Afghanistan",
        "faa": "OAKN",
        "lat": 31.50580025,
        "lon": 65.84780121
      },
      {
        "id": 1190,
        "name": "Tirana International Airport Mother Teresa",
        "city": "Tirana",
        "country": "Albania",
        "faa": "LATI",
        "lat": 41.41469955,
        "lon": 19.72060013
      },
      {
        "id": 11869,
        "name": "Gjadër Air Base",
        "city": "Gjadër",
        "country": "Albania",
        "faa": "LAGJ",
        "lat": 41.895199,
        "lon": 19.5987
      },
      {
        "id": 207,
        "name": "Blida Airport",
        "city": "Blida",
        "country": "Algeria",
        "faa": "DAAB",
        "lat": 36.50360107,
        "lon": 2.814169884
      },
      {
        "id": 208,
        "name": "Bou Saada Airport",
        "city": "Bou Saada",
        "country": "Algeria",
        "faa": "DAAD",
        "lat": 35.33250046,
        "lon": 4.206389904
      },
      {
        "id": 209,
        "name": "Soummam Airport",
        "city": "Bejaja",
        "country": "Algeria",
        "faa": "DAAE",
        "lat": 36.7120018,
        "lon": 5.069920063
      },
      {
        "id": 210,
        "name": "Houari Boumediene Airport",
        "city": "Algier",
        "country": "Algeria",
        "faa": "DAAG",
        "lat": 36.69100189,
        "lon": 3.215409994
      },
      {
        "id": 211,
        "name": "Djanet Inedbirene Airport",
        "city": "Djanet",
        "country": "Algeria",
        "faa": "DAAJ",
        "lat": 24.292801,
        "lon": 9.45244
      },
      {
        "id": 212,
        "name": "Boufarik Airport",
        "city": "Boufarik",
        "country": "Algeria",
        "faa": "DAAK",
        "lat": 36.545799,
        "lon": 2.87611
      },
      {
        "id": 944,
        "name": "Mbanza Congo Airport",
        "city": "M'banza-congo",
        "country": "Angola",
        "faa": "FNBC",
        "lat": -6.269899845,
        "lon": 14.24699974
      },
      {
        "id": 945,
        "name": "Benguela Airport",
        "city": "Benguela",
        "country": "Angola",
        "faa": "FNBG",
        "lat": -12.60900021,
        "lon": 13.40369987
      },
      {
        "id": 946,
        "name": "Cabinda Airport",
        "city": "Cabinda",
        "country": "Angola",
        "faa": "FNCA",
        "lat": -5.596990108,
        "lon": 12.18840027
      },
      {
        "id": 948,
        "name": "Nova Lisboa Airport",
        "city": "Huambo",
        "country": "Angola",
        "faa": "FNHU",
        "lat": -12.80889988,
        "lon": 15.76049995
      },
      {
        "id": 949,
        "name": "Kuito Airport",
        "city": "Kuito",
        "country": "Angola",
        "faa": "FNKU",
        "lat": -12.40460014,
        "lon": 16.94739914
      },
      {
        "id": 2900,
        "name": "Clayton J Lloyd International Airport",
        "city": "The Valley",
        "country": "Anguilla",
        "faa": "TQPF",
        "lat": 18.2048,
        "lon": -63.055099
      },
      {
        "id": 2874,
        "name": "V.C. Bird International Airport",
        "city": "Antigua",
        "country": "Antigua and Barbuda",
        "faa": "TAPA",
        "lat": 17.1367,
        "lon": -61.792702
      },
      {
        "id": 6074,
        "name": "Codrington Airport",
        "city": "Codrington",
        "country": "Antigua and Barbuda",
        "faa": "TAPH",
        "lat": 17.635799,
        "lon": -61.828602
      },
      {
        "id": 2436,
        "name": "Comodoro Pierrestegui Airport",
        "city": "Concordia",
        "country": "Argentina",
        "faa": "SAAC",
        "lat": -31.2969,
        "lon": -57.9966
      },
      {
        "id": 2437,
        "name": "Gualeguaychu Airport",
        "city": "Gualeguaychu",
        "country": "Argentina",
        "faa": "SAAG",
        "lat": -33.0103,
        "lon": -58.6131
      },
      {
        "id": 2438,
        "name": "Junin Airport",
        "city": "Junin",
        "country": "Argentina",
        "faa": "SAAJ",
        "lat": -34.5459,
        "lon": -60.9306
      },
      {
        "id": 2439,
        "name": "General Urquiza Airport",
        "city": "Parana",
        "country": "Argentina",
        "faa": "SAAP",
        "lat": -31.7948,
        "lon": -60.4804
      },
      {
        "id": 2440,
        "name": "Islas Malvinas Airport",
        "city": "Rosario",
        "country": "Argentina",
        "faa": "SAAR",
        "lat": -32.9036,
        "lon": -60.785
      },
      {
        "id": 2441,
        "name": "Sauce Viejo Airport",
        "city": "Santa Fe",
        "country": "Argentina",
        "faa": "SAAV",
        "lat": -31.7117,
        "lon": -60.8117
      },
      {
        "id": 2442,
        "name": "Jorge Newbery Airpark",
        "city": "Buenos Aires",
        "country": "Argentina",
        "faa": "SABE",
        "lat": -34.5592,
        "lon": -58.4156
      },
      {
        "id": 2443,
        "name": "Ingeniero Ambrosio Taravella Airport",
        "city": "Cordoba",
        "country": "Argentina",
        "faa": "SACO",
        "lat": -31.323601,
        "lon": -64.208
      },
      {
        "id": 2444,
        "name": "Chamical Airport",
        "city": "Gobernador Gordillo",
        "country": "Argentina",
        "faa": "SACT",
        "lat": -30.34530067,
        "lon": -66.29360198
      },
      {
        "id": 3962,
        "name": "Erebuni Airport",
        "city": "Yerevan",
        "country": "Armenia",
        "faa": "UDYE",
        "lat": 40.12210083,
        "lon": 44.46500015
      },
      {
        "id": 3963,
        "name": "Stepanavan Airport",
        "city": "Stepanavan",
        "country": "Armenia",
        "faa": "UDLS",
        "lat": 41.04850006,
        "lon": 44.33720016
      },
      {
        "id": 3964,
        "name": "Zvartnots International Airport",
        "city": "Yerevan",
        "country": "Armenia",
        "faa": "UDYZ",
        "lat": 40.14730072,
        "lon": 44.39590073
      },
      {
        "id": 2895,
        "name": "Queen Beatrix International Airport",
        "city": "Oranjestad",
        "country": "Aruba",
        "faa": "TNCA",
        "lat": 12.5014,
        "lon": -70.015198
      },
      {
        "id": 3317,
        "name": "Brisbane Archerfield Airport",
        "city": "Brisbane",
        "country": "Australia",
        "faa": "YBAF",
        "lat": -27.57029915,
        "lon": 153.0079956
      },
      {
        "id": 3318,
        "name": "Northern Peninsula Airport",
        "city": "Amberley",
        "country": "Australia",
        "faa": "YBAM",
        "lat": -10.9508,
        "lon": 142.459
      },
      {
        "id": 3319,
        "name": "Alice Springs Airport",
        "city": "Alice Springs",
        "country": "Australia",
        "faa": "YBAS",
        "lat": -23.80669975,
        "lon": 133.9019928
      },
      {
        "id": 3320,
        "name": "Brisbane International Airport",
        "city": "Brisbane",
        "country": "Australia",
        "faa": "YBBN",
        "lat": -27.38419914,
        "lon": 153.1170044
      },
      {
        "id": 3321,
        "name": "Gold Coast Airport",
        "city": "Coolangatta",
        "country": "Australia",
        "faa": "YBCG",
        "lat": -28.1644001,
        "lon": 153.5050049
      },
      {
        "id": 3322,
        "name": "Cairns International Airport",
        "city": "Cairns",
        "country": "Australia",
        "faa": "YBCS",
        "lat": -16.88579941,
        "lon": 145.7550049
      },
      {
        "id": 3323,
        "name": "Charleville Airport",
        "city": "Charlieville",
        "country": "Australia",
        "faa": "YBCV",
        "lat": -26.41329956,
        "lon": 146.2619934
      },
      {
        "id": 3324,
        "name": "Mount Isa Airport",
        "city": "Mount Isa",
        "country": "Australia",
        "faa": "YBMA",
        "lat": -20.66390038,
        "lon": 139.4889984
      },
      {
        "id": 3325,
        "name": "Sunshine Coast Airport",
        "city": "Maroochydore",
        "country": "Australia",
        "faa": "YBMC",
        "lat": -26.6033,
        "lon": 153.091003
      },
      {
        "id": 3326,
        "name": "Mackay Airport",
        "city": "Mackay",
        "country": "Australia",
        "faa": "YBMK",
        "lat": -21.17169952,
        "lon": 149.1799927
      },
      {
        "id": 3328,
        "name": "Proserpine Whitsunday Coast Airport",
        "city": "Prosserpine",
        "country": "Australia",
        "faa": "YBPN",
        "lat": -20.49500084,
        "lon": 148.552002
      },
      {
        "id": 1607,
        "name": "Wiener Neustadt East Airport",
        "city": "Wiener Neustadt Ost",
        "country": "Austria",
        "faa": "LOAN",
        "lat": 47.84329987,
        "lon": 16.26009941
      },
      {
        "id": 1608,
        "name": "Wels Airport",
        "city": "Wels",
        "country": "Austria",
        "faa": "LOLW",
        "lat": 48.18330002,
        "lon": 14.04090023
      },
      {
        "id": 1609,
        "name": "Graz Airport",
        "city": "Graz",
        "country": "Austria",
        "faa": "LOWG",
        "lat": 46.99110031,
        "lon": 15.43959999
      },
      {
        "id": 1610,
        "name": "Innsbruck Airport",
        "city": "Innsbruck",
        "country": "Austria",
        "faa": "LOWI",
        "lat": 47.260201,
        "lon": 11.344
      },
      {
        "id": 1611,
        "name": "Linz Hörsching Airport",
        "city": "Linz",
        "country": "Austria",
        "faa": "LOWL",
        "lat": 48.2332,
        "lon": 14.1875
      },
      {
        "id": 1612,
        "name": "Salzburg Airport",
        "city": "Salzburg",
        "country": "Austria",
        "faa": "LOWS",
        "lat": 47.79330063,
        "lon": 13.00430012
      },
      {
        "id": 2922,
        "name": "Heydar Aliyev International Airport",
        "city": "Baku",
        "country": "Azerbaijan",
        "faa": "UBBB",
        "lat": 40.46749878,
        "lon": 50.04669952
      },
      {
        "id": 6089,
        "name": "Ganja Airport",
        "city": "Ganja",
        "country": "Azerbaijan",
        "faa": "UBBG",
        "lat": 40.73770142,
        "lon": 46.31760025
      },
      {
        "id": 1927,
        "name": "Clarence A. Bain Airport",
        "city": "Clarence Bain",
        "country": "Bahamas",
        "faa": "MYAB",
        "lat": 24.28770065,
        "lon": -77.68460083
      },
      {
        "id": 1928,
        "name": "Andros Town Airport",
        "city": "Andros Town",
        "country": "Bahamas",
        "faa": "MYAF",
        "lat": 24.69790077,
        "lon": -77.79560089
      },
      {
        "id": 1930,
        "name": "Leonard M Thompson International Airport",
        "city": "Marsh Harbor",
        "country": "Bahamas",
        "faa": "MYAM",
        "lat": 26.5114,
        "lon": -77.083503
      },
      {
        "id": 1931,
        "name": "San Andros Airport",
        "city": "San Andros",
        "country": "Bahamas",
        "faa": "MYAN",
        "lat": 25.05380058,
        "lon": -78.0490036
      },
      {
        "id": 1932,
        "name": "Spring Point Airport",
        "city": "Spring Point",
        "country": "Bahamas",
        "faa": "MYAP",
        "lat": 22.44179916,
        "lon": -73.97090149
      },
      {
        "id": 2057,
        "name": "Bahrain International Airport",
        "city": "Bahrain",
        "country": "Bahrain",
        "faa": "OBBI",
        "lat": 26.27079964,
        "lon": 50.63359833
      },
      {
        "id": 2058,
        "name": "Sheik Isa Air Base",
        "city": "Bahrain",
        "country": "Bahrain",
        "faa": "OBBS",
        "lat": 25.91839981,
        "lon": 50.59059906
      },
      {
        "id": 3068,
        "name": "Cox's Bazar Airport",
        "city": "Cox's Bazar",
        "country": "Bangladesh",
        "faa": "VGCB",
        "lat": 21.45219994,
        "lon": 91.96389771
      },
      {
        "id": 3069,
        "name": "Shah Amanat International Airport",
        "city": "Chittagong",
        "country": "Bangladesh",
        "faa": "VGEG",
        "lat": 22.24959946,
        "lon": 91.81330109
      },
      {
        "id": 3070,
        "name": "Ishurdi Airport",
        "city": "Ishurdi",
        "country": "Bangladesh",
        "faa": "VGIS",
        "lat": 24.15250015,
        "lon": 89.04940033
      },
      {
        "id": 6176,
        "name": "Barisal Airport",
        "city": "Barisal",
        "country": "Bangladesh",
        "faa": "VGBR",
        "lat": 22.8010006,
        "lon": 90.30120087
      },
      {
        "id": 2875,
        "name": "Sir Grantley Adams International Airport",
        "city": "Bridgetown",
        "country": "Barbados",
        "faa": "TBPB",
        "lat": 13.07460022,
        "lon": -59.49250031
      },
      {
        "id": 2950,
        "name": "Gomel Airport",
        "city": "Gomel",
        "country": "Belarus",
        "faa": "UMGG",
        "lat": 52.52700043,
        "lon": 31.01670074
      },
      {
        "id": 2951,
        "name": "Vitebsk Vostochny Airport",
        "city": "Vitebsk",
        "country": "Belarus",
        "faa": "UMII",
        "lat": 55.12649918,
        "lon": 30.34959984
      },
      {
        "id": 2953,
        "name": "Minsk 1 Airport",
        "city": "Minsk",
        "country": "Belarus",
        "faa": "UMMM",
        "lat": 53.86449814,
        "lon": 27.53969955
      },
      {
        "id": 2954,
        "name": "Minsk National Airport",
        "city": "Minsk 2",
        "country": "Belarus",
        "faa": "UMMS",
        "lat": 53.88249969,
        "lon": 28.03070068
      },
      {
        "id": 6115,
        "name": "Hrodna Airport",
        "city": "Hrodna",
        "country": "Belarus",
        "faa": "UMMG",
        "lat": 53.60200119,
        "lon": 24.05380058
      },
      {
        "id": 299,
        "name": "Antwerp International Airport (Deurne)",
        "city": "Antwerp",
        "country": "Belgium",
        "faa": "EBAW",
        "lat": 51.18939972,
        "lon": 4.460279942
      },
      {
        "id": 300,
        "name": "Beauvechain Air Base",
        "city": "Beauvechain",
        "country": "Belgium",
        "faa": "EBBE",
        "lat": 50.75859833,
        "lon": 4.768330097
      },
      {
        "id": 301,
        "name": "Kleine Brogel Air Base",
        "city": "Kleine Brogel",
        "country": "Belgium",
        "faa": "EBBL",
        "lat": 51.168301,
        "lon": 5.47
      },
      {
        "id": 302,
        "name": "Brussels Airport",
        "city": "Brussels",
        "country": "Belgium",
        "faa": "EBBR",
        "lat": 50.90140152,
        "lon": 4.48443985
      },
      {
        "id": 303,
        "name": "Jehonville Air Base",
        "city": "Bertrix",
        "country": "Belgium",
        "faa": "EBBX",
        "lat": 49.89170074,
        "lon": 5.223889828
      },
      {
        "id": 304,
        "name": "Brussels South Charleroi Airport",
        "city": "Charleroi",
        "country": "Belgium",
        "faa": "EBCI",
        "lat": 50.459202,
        "lon": 4.45382
      },
      {
        "id": 305,
        "name": "Chièvres Air Base",
        "city": "Chievres",
        "country": "Belgium",
        "faa": "EBCV",
        "lat": 50.57580185,
        "lon": 3.83100009
      },
      {
        "id": 306,
        "name": "Koksijde Air Base",
        "city": "Koksijde",
        "country": "Belgium",
        "faa": "EBFN",
        "lat": 51.09030151,
        "lon": 2.652780056
      },
      {
        "id": 307,
        "name": "Florennes Air Base",
        "city": "Florennes",
        "country": "Belgium",
        "faa": "EBFS",
        "lat": 50.24330139,
        "lon": 4.645830154
      },
      {
        "id": 1957,
        "name": "Philip S. W. Goldson International Airport",
        "city": "Belize City",
        "country": "Belize",
        "faa": "MZBZ",
        "lat": 17.53910065,
        "lon": -88.30819702
      },
      {
        "id": 4279,
        "name": "San Pedro Airport",
        "city": "San Pedro",
        "country": "Belize",
        "faa": "MZSP",
        "lat": 17.9139,
        "lon": -87.9711
      },
      {
        "id": 8227,
        "name": "Birchwood Airport",
        "city": "Belmopan",
        "country": "Belize",
        "faa": "PABV",
        "lat": 61.41650009,
        "lon": -149.5070038
      },
      {
        "id": 245,
        "name": "Cadjehoun Airport",
        "city": "Cotonou",
        "country": "Benin",
        "faa": "DBBB",
        "lat": 6.357230186,
        "lon": 2.384350061
      },
      {
        "id": 12104,
        "name": "Parakou Airport",
        "city": "Parakou",
        "country": "Benin",
        "faa": "DBBP",
        "lat": 9.357689857,
        "lon": 2.609679937
      },
      {
        "id": 12106,
        "name": "Kandi Airport",
        "city": "Kandi",
        "country": "Benin",
        "faa": "DBBK",
        "lat": 11.14479,
        "lon": 2.940381
      },
      {
        "id": 3155,
        "name": "Paro Airport",
        "city": "Thimphu",
        "country": "Bhutan",
        "faa": "VQPR",
        "lat": 27.40320015,
        "lon": 89.42459869
      },
      {
        "id": 11389,
        "name": "Bathpalathang Airport",
        "city": "Jakar",
        "country": "Bhutan",
        "faa": "VQBT",
        "lat": 27.5622,
        "lon": 90.7471
      },
      {
        "id": 11644,
        "name": "Gelephu Airport",
        "city": "Gelephu",
        "country": "Bhutan",
        "faa": "VQGP",
        "lat": 26.88456,
        "lon": 90.46412
      },
      {
        "id": 2758,
        "name": "Bermejo Airport",
        "city": "Bermejo",
        "country": "Bolivia",
        "faa": "SLBJ",
        "lat": -22.77330017,
        "lon": -64.31289673
      },
      {
        "id": 2759,
        "name": "Jorge Wilsterman International Airport",
        "city": "Cochabamba",
        "country": "Bolivia",
        "faa": "SLCB",
        "lat": -17.42110062,
        "lon": -66.17710114
      },
      {
        "id": 2760,
        "name": "Chimore Airport",
        "city": "Chapacura",
        "country": "Bolivia",
        "faa": "SLCH",
        "lat": -16.976834,
        "lon": -65.145568
      },
      {
        "id": 2761,
        "name": "Capitán Aníbal Arab Airport",
        "city": "Cobija",
        "country": "Bolivia",
        "faa": "SLCO",
        "lat": -11.04039955,
        "lon": -68.78299713
      },
      {
        "id": 2762,
        "name": "El Alto International Airport",
        "city": "La Paz",
        "country": "Bolivia",
        "faa": "SLLP",
        "lat": -16.51329994,
        "lon": -68.19229889
      },
      {
        "id": 1646,
        "name": "Sarajevo International Airport",
        "city": "Sarajevo",
        "country": "Bosnia and Herzegovina",
        "faa": "LQSA",
        "lat": 43.82460022,
        "lon": 18.3314991
      },
      {
        "id": 5794,
        "name": "Banja Luka International Airport",
        "city": "Banja Luka",
        "country": "Bosnia and Herzegovina",
        "faa": "LQBK",
        "lat": 44.94139862,
        "lon": 17.29750061
      },
      {
        "id": 6947,
        "name": "Tuzla International Airport",
        "city": "",
        "country": "Bosnia and Herzegovina",
        "faa": "LQTZ",
        "lat": 44.45869827,
        "lon": 18.72480011
      },
      {
        "id": 877,
        "name": "Francistown Airport",
        "city": "Francistown",
        "country": "Botswana",
        "faa": "FBFT",
        "lat": -21.1595993,
        "lon": 27.47450066
      },
      {
        "id": 878,
        "name": "Jwaneng Airport",
        "city": "Jwaneng",
        "country": "Botswana",
        "faa": "FBJW",
        "lat": -24.60230064,
        "lon": 24.69099998
      },
      {
        "id": 879,
        "name": "Kasane Airport",
        "city": "Kasane",
        "country": "Botswana",
        "faa": "FBKE",
        "lat": -17.83289909,
        "lon": 25.16239929
      },
      {
        "id": 880,
        "name": "Maun Airport",
        "city": "Maun",
        "country": "Botswana",
        "faa": "FBMN",
        "lat": -19.97260094,
        "lon": 23.43110085
      },
      {
        "id": 881,
        "name": "Sir Seretse Khama International Airport",
        "city": "Gaberone",
        "country": "Botswana",
        "faa": "FBSK",
        "lat": -24.555201,
        "lon": 25.9182
      },
      {
        "id": 882,
        "name": "Selebi Phikwe Airport",
        "city": "Selebi-phikwe",
        "country": "Botswana",
        "faa": "FBSP",
        "lat": -22.0583,
        "lon": 27.8288
      },
      {
        "id": 2552,
        "name": "Jacareacanga Airport",
        "city": "Jacare-acanga",
        "country": "Brazil",
        "faa": "SBEK",
        "lat": -6.233160019,
        "lon": -57.77690125
      },
      {
        "id": 2553,
        "name": "São Pedro da Aldeia Airport",
        "city": "Sao Pedro Da Aldeia",
        "country": "Brazil",
        "faa": "SBES",
        "lat": -22.81290054,
        "lon": -42.09260178
      },
      {
        "id": 2554,
        "name": "Cataratas International Airport",
        "city": "Foz Do Iguacu",
        "country": "Brazil",
        "faa": "SBFI",
        "lat": -25.60027885,
        "lon": -54.48500061
      },
      {
        "id": 2555,
        "name": "Hercílio Luz International Airport",
        "city": "Florianopolis",
        "country": "Brazil",
        "faa": "SBFL",
        "lat": -27.67027855,
        "lon": -48.55250168
      },
      {
        "id": 2556,
        "name": "Fernando de Noronha Airport",
        "city": "Fernando Do Noronha",
        "country": "Brazil",
        "faa": "SBFN",
        "lat": -3.85493,
        "lon": -32.423302
      },
      {
        "id": 2558,
        "name": "Furnas Airport",
        "city": "Alpinopolis",
        "country": "Brazil",
        "faa": "SBFU",
        "lat": -20.70280075,
        "lon": -46.33530045
      },
      {
        "id": 2559,
        "name": "Pinto Martins International Airport",
        "city": "Fortaleza",
        "country": "Brazil",
        "faa": "SBFZ",
        "lat": -3.776279926,
        "lon": -38.5326004
      },
      {
        "id": 2560,
        "name": "Rio Galeão – Tom Jobim International Airport",
        "city": "Rio De Janeiro",
        "country": "Brazil",
        "faa": "SBGL",
        "lat": -22.80999947,
        "lon": -43.25055695
      },
      {
        "id": 2561,
        "name": "Guajará-Mirim Airport",
        "city": "Guajara-mirim",
        "country": "Brazil",
        "faa": "SBGM",
        "lat": -10.78639984,
        "lon": -65.28479767
      },
      {
        "id": 2562,
        "name": "Santa Genoveva Airport",
        "city": "Goiania",
        "country": "Brazil",
        "faa": "SBGO",
        "lat": -16.63199997,
        "lon": -49.22069931
      },
      {
        "id": 2563,
        "name": "EMBRAER - Unidade Gavião Peixoto Airport",
        "city": "Macae",
        "country": "Brazil",
        "faa": "SBGP",
        "lat": -21.77370071,
        "lon": -48.40510178
      },
      {
        "id": 2564,
        "name": "Guarulhos - Governador André Franco Montoro International Airport",
        "city": "Sao Paulo",
        "country": "Brazil",
        "faa": "SBGR",
        "lat": -23.43555641,
        "lon": -46.47305679
      },
      {
        "id": 2565,
        "name": "Guaratinguetá Airport",
        "city": "Guaratingueta",
        "country": "Brazil",
        "faa": "SBGW",
        "lat": -22.79159927,
        "lon": -45.20479965
      },
      {
        "id": 2566,
        "name": "Altamira Airport",
        "city": "Altamira",
        "country": "Brazil",
        "faa": "SBHT",
        "lat": -3.253910065,
        "lon": -52.25400162
      },
      {
        "id": 2567,
        "name": "Itacoatiara Airport",
        "city": "Itaituba",
        "country": "Brazil",
        "faa": "SBIC",
        "lat": -3.12725997,
        "lon": -58.48120117
      },
      {
        "id": 2568,
        "name": "Itaituba Airport",
        "city": "Itaituba",
        "country": "Brazil",
        "faa": "SBIH",
        "lat": -4.242340088,
        "lon": -56.0007019
      },
      {
        "id": 2569,
        "name": "Bahia - Jorge Amado Airport",
        "city": "Ilheus",
        "country": "Brazil",
        "faa": "SBIL",
        "lat": -14.81599998,
        "lon": -39.03319931
      },
      {
        "id": 2570,
        "name": "Usiminas Airport",
        "city": "Ipatinga",
        "country": "Brazil",
        "faa": "SBIP",
        "lat": -19.47069931,
        "lon": -42.48759842
      },
      {
        "id": 2571,
        "name": "Francisco Vilela do Amaral Airport",
        "city": "Itumbiara",
        "country": "Brazil",
        "faa": "SBIT",
        "lat": -18.44470024,
        "lon": -49.21340179
      },
      {
        "id": 2572,
        "name": "Prefeito Renato Moreira Airport",
        "city": "Imperatriz",
        "country": "Brazil",
        "faa": "SBIZ",
        "lat": -5.53129,
        "lon": -47.459999
      },
      {
        "id": 2573,
        "name": "Belém/Brigadeiro Protásio de Oliveira Airport",
        "city": "Belem",
        "country": "Brazil",
        "faa": "SBJC",
        "lat": -1.414160013,
        "lon": -48.46070099
      },
      {
        "id": 2574,
        "name": "Francisco de Assis Airport",
        "city": "Juiz De Fora",
        "country": "Brazil",
        "faa": "SBJF",
        "lat": -21.79150009,
        "lon": -43.38679886
      },
      {
        "id": 2575,
        "name": "Presidente Castro Pinto International Airport",
        "city": "Joao Pessoa",
        "country": "Brazil",
        "faa": "SBJP",
        "lat": -7.145833015,
        "lon": -34.94861221
      },
      {
        "id": 2576,
        "name": "Lauro Carneiro de Loyola Airport",
        "city": "Joinville",
        "country": "Brazil",
        "faa": "SBJV",
        "lat": -26.22450066,
        "lon": -48.79740143
      },
      {
        "id": 2577,
        "name": "Presidente João Suassuna Airport",
        "city": "Campina Grande",
        "country": "Brazil",
        "faa": "SBKG",
        "lat": -7.26992,
        "lon": -35.8964
      },
      {
        "id": 2578,
        "name": "Viracopos International Airport",
        "city": "Campinas",
        "country": "Brazil",
        "faa": "SBKP",
        "lat": -23.00740051,
        "lon": -47.1344986
      },
      {
        "id": 2579,
        "name": "Lages Airport",
        "city": "Lajes",
        "country": "Brazil",
        "faa": "SBLJ",
        "lat": -27.78210068,
        "lon": -50.28150177
      },
      {
        "id": 2580,
        "name": "Lins Airport",
        "city": "Lins",
        "country": "Brazil",
        "faa": "SBLN",
        "lat": -21.66399956,
        "lon": -49.73049927
      },
      {
        "id": 2581,
        "name": "Governador José Richa Airport",
        "city": "Londrina",
        "country": "Brazil",
        "faa": "SBLO",
        "lat": -23.33359909,
        "lon": -51.13010025
      },
      {
        "id": 2582,
        "name": "Bom Jesus da Lapa Airport",
        "city": "Bom Jesus Da Lapa",
        "country": "Brazil",
        "faa": "SBLP",
        "lat": -13.26210022,
        "lon": -43.40810013
      },
      {
        "id": 2583,
        "name": "Lagoa Santa Airport",
        "city": "Lagoa Santa",
        "country": "Brazil",
        "faa": "SBLS",
        "lat": -19.66160011,
        "lon": -43.89640045
      },
      {
        "id": 2584,
        "name": "João Correa da Rocha Airport",
        "city": "Maraba",
        "country": "Brazil",
        "faa": "SBMA",
        "lat": -5.368589878,
        "lon": -49.13800049
      },
      {
        "id": 2585,
        "name": "Monte Dourado Airport",
        "city": "Almeirim",
        "country": "Brazil",
        "faa": "SBMD",
        "lat": -0.889839,
        "lon": -52.6022
      },
      {
        "id": 2586,
        "name": "Regional de Maringá - Sílvio Nane Junior Airport",
        "city": "Maringa",
        "country": "Brazil",
        "faa": "SBMG",
        "lat": -23.4794445,
        "lon": -52.01222229
      },
      {
        "id": 2587,
        "name": "Mário Ribeiro Airport",
        "city": "Montes Claros",
        "country": "Brazil",
        "faa": "SBMK",
        "lat": -16.70689964,
        "lon": -43.81890106
      },
      {
        "id": 2589,
        "name": "Ponta Pelada Airport",
        "city": "Manaus",
        "country": "Brazil",
        "faa": "SBMN",
        "lat": -3.146039963,
        "lon": -59.98630142
      },
      {
        "id": 2590,
        "name": "Zumbi dos Palmares Airport",
        "city": "Maceio",
        "country": "Brazil",
        "faa": "SBMO",
        "lat": -9.510809898,
        "lon": -35.79169846
      },
      {
        "id": 2903,
        "name": "Terrance B. Lettsome International Airport",
        "city": "Tortola",
        "country": "British Virgin Islands",
        "faa": "TUPJ",
        "lat": 18.44479942,
        "lon": -64.54299927
      },
      {
        "id": 6080,
        "name": "Virgin Gorda Airport",
        "city": "Spanish Town",
        "country": "British Virgin Islands",
        "faa": "TUPW",
        "lat": 18.44639969,
        "lon": -64.42749786
      },
      {
        "id": 11009,
        "name": "Captain Auguste George Airport",
        "city": "Anegada",
        "country": "British Virgin Islands",
        "faa": "TUPA",
        "lat": 18.72719955,
        "lon": -64.32969666
      },
      {
        "id": 3272,
        "name": "Brunei International Airport",
        "city": "Bandar Seri Begawan",
        "country": "Brunei",
        "faa": "WBSB",
        "lat": 4.944200039,
        "lon": 114.9280014
      },
      {
        "id": 6458,
        "name": "Anduki Airport",
        "city": "Seria",
        "country": "Brunei",
        "faa": "WBAK",
        "lat": 4.637000084,
        "lon": 114.3820038
      },
      {
        "id": 1191,
        "name": "Burgas Airport",
        "city": "Bourgas",
        "country": "Bulgaria",
        "faa": "LBBG",
        "lat": 42.56959915,
        "lon": 27.51519966
      },
      {
        "id": 1192,
        "name": "Gorna Oryahovitsa Airport",
        "city": "Gorna Orechovica",
        "country": "Bulgaria",
        "faa": "LBGO",
        "lat": 43.15140152,
        "lon": 25.71290016
      },
      {
        "id": 1193,
        "name": "Plovdiv International Airport",
        "city": "Plovdiv",
        "country": "Bulgaria",
        "faa": "LBPD",
        "lat": 42.067799,
        "lon": 24.8508
      },
      {
        "id": 1194,
        "name": "Sofia Airport",
        "city": "Sofia",
        "country": "Bulgaria",
        "faa": "LBSF",
        "lat": 42.69669342,
        "lon": 23.41143608
      },
      {
        "id": 1195,
        "name": "Stara Zagora Airport",
        "city": "Stara Zagora",
        "country": "Bulgaria",
        "faa": "LBSZ",
        "lat": 42.3766667,
        "lon": 25.655
      },
      {
        "id": 1196,
        "name": "Varna Airport",
        "city": "Varna",
        "country": "Bulgaria",
        "faa": "LBWN",
        "lat": 43.232101,
        "lon": 27.8251
      },
      {
        "id": 246,
        "name": "Ouagadougou Airport",
        "city": "Ouagadougou",
        "country": "Burkina Faso",
        "faa": "DFFD",
        "lat": 12.3532,
        "lon": -1.51242
      },
      {
        "id": 247,
        "name": "Bobo Dioulasso Airport",
        "city": "Bobo-dioulasso",
        "country": "Burkina Faso",
        "faa": "DFOO",
        "lat": 11.16009998,
        "lon": -4.33096981
      },
      {
        "id": 3233,
        "name": "Pyay Airport",
        "city": "Pyay",
        "country": "Burma",
        "faa": "VYPY",
        "lat": 18.82449913,
        "lon": 95.26599884
      },
      {
        "id": 3234,
        "name": "Shante Air Base",
        "city": "Shante",
        "country": "Burma",
        "faa": "VYST",
        "lat": 20.94169998,
        "lon": 95.91449738
      },
      {
        "id": 3235,
        "name": "Sittwe Airport",
        "city": "Sittwe",
        "country": "Burma",
        "faa": "VYSW",
        "lat": 20.13269997,
        "lon": 92.87259674
      },
      {
        "id": 3236,
        "name": "Thandwe Airport",
        "city": "Thandwe",
        "country": "Burma",
        "faa": "VYTD",
        "lat": 18.46069908,
        "lon": 94.30010223
      },
      {
        "id": 3237,
        "name": "Tachileik Airport",
        "city": "Tachilek",
        "country": "Burma",
        "faa": "VYTL",
        "lat": 20.48380089,
        "lon": 99.93540192
      },
      {
        "id": 1120,
        "name": "Bujumbura International Airport",
        "city": "Bujumbura",
        "country": "Burundi",
        "faa": "HBBA",
        "lat": -3.324019909,
        "lon": 29.31850052
      },
      {
        "id": 13821,
        "name": "Gitega Airport",
        "city": "Gitega",
        "country": "Burundi",
        "faa": "HBBE",
        "lat": -3.417209,
        "lon": 29.911308
      },
      {
        "id": 3033,
        "name": "Kampong Chhnang Airport",
        "city": "Kompong Chnang",
        "country": "Cambodia",
        "faa": "VDKH",
        "lat": 12.25520039,
        "lon": 104.564003
      },
      {
        "id": 3034,
        "name": "Phnom Penh International Airport",
        "city": "Phnom-penh",
        "country": "Cambodia",
        "faa": "VDPP",
        "lat": 11.54660034,
        "lon": 104.8440018
      },
      {
        "id": 3035,
        "name": "Siem Reap International Airport",
        "city": "Siem-reap",
        "country": "Cambodia",
        "faa": "VDSR",
        "lat": 13.41069984,
        "lon": 103.8130035
      },
      {
        "id": 3036,
        "name": "Stung Treng Airport",
        "city": "Stung Treng",
        "country": "Cambodia",
        "faa": "VDST",
        "lat": 13.53190041,
        "lon": 106.0149994
      },
      {
        "id": 4093,
        "name": "Sihanoukville International Airport",
        "city": "Sihanoukville",
        "country": "Cambodia",
        "faa": "VDSV",
        "lat": 10.57970047,
        "lon": 103.637001
      },
      {
        "id": 896,
        "name": "Tiko Airport",
        "city": "Tiko",
        "country": "Cameroon",
        "faa": "FKKC",
        "lat": 4.089190006,
        "lon": 9.3605299
      },
      {
        "id": 897,
        "name": "Douala International Airport",
        "city": "Douala",
        "country": "Cameroon",
        "faa": "FKKD",
        "lat": 4.006080151,
        "lon": 9.719479561
      },
      {
        "id": 898,
        "name": "Salak Airport",
        "city": "Maroua",
        "country": "Cameroon",
        "faa": "FKKL",
        "lat": 10.4513998,
        "lon": 14.25739956
      },
      {
        "id": 899,
        "name": "Foumban Nkounja Airport",
        "city": "Foumban",
        "country": "Cameroon",
        "faa": "FKKM",
        "lat": 5.636919975,
        "lon": 10.75080013
      },
      {
        "id": 900,
        "name": "N'Gaoundéré Airport",
        "city": "N'gaoundere",
        "country": "Cameroon",
        "faa": "FKKN",
        "lat": 7.357009888,
        "lon": 13.55920029
      },
      {
        "id": 21,
        "name": "Sault Ste Marie Airport",
        "city": "Sault Sainte Marie",
        "country": "Canada",
        "faa": "CYAM",
        "lat": 46.48500061,
        "lon": -84.50939941
      },
      {
        "id": 22,
        "name": "Winnipeg / St. Andrews Airport",
        "city": "Winnipeg",
        "country": "Canada",
        "faa": "CYAV",
        "lat": 50.0564003,
        "lon": -97.03250122
      },
      {
        "id": 23,
        "name": "Halifax / CFB Shearwater Heliport",
        "city": "Halifax",
        "country": "Canada",
        "faa": "CYAW",
        "lat": 44.639702,
        "lon": -63.499401
      },
      {
        "id": 24,
        "name": "St. Anthony Airport",
        "city": "St. Anthony",
        "country": "Canada",
        "faa": "CYAY",
        "lat": 51.39189911,
        "lon": -56.08309937
      },
      {
        "id": 25,
        "name": "Tofino / Long Beach Airport",
        "city": "Tofino",
        "country": "Canada",
        "faa": "CYAZ",
        "lat": 49.079833,
        "lon": -125.775583
      },
      {
        "id": 26,
        "name": "Kugaaruk Airport",
        "city": "Pelly Bay",
        "country": "Canada",
        "faa": "CYBB",
        "lat": 68.534401,
        "lon": -89.808098
      },
      {
        "id": 27,
        "name": "Baie Comeau Airport",
        "city": "Baie Comeau",
        "country": "Canada",
        "faa": "CYBC",
        "lat": 49.13249969,
        "lon": -68.20439911
      },
      {
        "id": 28,
        "name": "CFB Bagotville",
        "city": "Bagotville",
        "country": "Canada",
        "faa": "CYBG",
        "lat": 48.33060074,
        "lon": -70.99639893
      },
      {
        "id": 29,
        "name": "Baker Lake Airport",
        "city": "Baker Lake",
        "country": "Canada",
        "faa": "CYBK",
        "lat": 64.29889679,
        "lon": -96.07779694
      },
      {
        "id": 30,
        "name": "Campbell River Airport",
        "city": "Campbell River",
        "country": "Canada",
        "faa": "CYBL",
        "lat": 49.95080185,
        "lon": -125.2710037
      },
      {
        "id": 31,
        "name": "Brandon Municipal Airport",
        "city": "Brandon",
        "country": "Canada",
        "faa": "CYBR",
        "lat": 49.91,
        "lon": -99.951897
      },
      {
        "id": 32,
        "name": "Cambridge Bay Airport",
        "city": "Cambridge Bay",
        "country": "Canada",
        "faa": "CYCB",
        "lat": 69.10810089,
        "lon": -105.1380005
      },
      {
        "id": 33,
        "name": "Nanaimo Airport",
        "city": "Nanaimo",
        "country": "Canada",
        "faa": "CYCD",
        "lat": 49.05497022,
        "lon": -123.8698626
      },
      {
        "id": 34,
        "name": "Castlegar/West Kootenay Regional Airport",
        "city": "Castlegar",
        "country": "Canada",
        "faa": "CYCG",
        "lat": 49.29639816,
        "lon": -117.6320038
      },
      {
        "id": 35,
        "name": "Miramichi Airport",
        "city": "Chatham",
        "country": "Canada",
        "faa": "CYCH",
        "lat": 47.007801,
        "lon": -65.449203
      },
      {
        "id": 36,
        "name": "Charlo Airport",
        "city": "Charlo",
        "country": "Canada",
        "faa": "CYCL",
        "lat": 47.990799,
        "lon": -66.330299
      },
      {
        "id": 37,
        "name": "Kugluktuk Airport",
        "city": "Coppermine",
        "country": "Canada",
        "faa": "CYCO",
        "lat": 67.816704,
        "lon": -115.143997
      },
      {
        "id": 38,
        "name": "Coronation Airport",
        "city": "Coronation",
        "country": "Canada",
        "faa": "CYCT",
        "lat": 52.07500076,
        "lon": -111.4449997
      },
      {
        "id": 39,
        "name": "Chilliwack Airport",
        "city": "Chilliwack",
        "country": "Canada",
        "faa": "CYCW",
        "lat": 49.15280151,
        "lon": -121.939003
      },
      {
        "id": 40,
        "name": "Clyde River Airport",
        "city": "Clyde River",
        "country": "Canada",
        "faa": "CYCY",
        "lat": 70.48609924,
        "lon": -68.51670074
      },
      {
        "id": 41,
        "name": "Coral Harbour Airport",
        "city": "Coral Harbour",
        "country": "Canada",
        "faa": "CYZS",
        "lat": 64.19329834,
        "lon": -83.35939789
      },
      {
        "id": 42,
        "name": "Dawson City Airport",
        "city": "Dawson",
        "country": "Canada",
        "faa": "CYDA",
        "lat": 64.04309845,
        "lon": -139.128006
      },
      {
        "id": 43,
        "name": "Burwash Airport",
        "city": "Burwash",
        "country": "Canada",
        "faa": "CYDB",
        "lat": 61.37110138,
        "lon": -139.0410004
      },
      {
        "id": 44,
        "name": "Princeton Airport",
        "city": "Princeton",
        "country": "Canada",
        "faa": "CYDC",
        "lat": 49.4681015,
        "lon": -120.5110016
      },
      {
        "id": 45,
        "name": "Deer Lake Airport",
        "city": "Deer Lake",
        "country": "Canada",
        "faa": "CYDF",
        "lat": 49.21080017,
        "lon": -57.39139938
      },
      {
        "id": 46,
        "name": "Dease Lake Airport",
        "city": "Dease Lake",
        "country": "Canada",
        "faa": "CYDL",
        "lat": 58.42219925,
        "lon": -130.0319977
      },
      {
        "id": 47,
        "name": "Dauphin Barker Airport",
        "city": "Dauphin",
        "country": "Canada",
        "faa": "CYDN",
        "lat": 51.10079956,
        "lon": -100.052002
      },
      {
        "id": 48,
        "name": "Dawson Creek Airport",
        "city": "Dawson Creek",
        "country": "Canada",
        "faa": "CYDQ",
        "lat": 55.74229813,
        "lon": -120.1829987
      },
      {
        "id": 49,
        "name": "Edmonton International Airport",
        "city": "Edmonton",
        "country": "Canada",
        "faa": "CYEG",
        "lat": 53.30970001,
        "lon": -113.5800018
      },
      {
        "id": 50,
        "name": "Arviat Airport",
        "city": "Eskimo Point",
        "country": "Canada",
        "faa": "CYEK",
        "lat": 61.09420013,
        "lon": -94.07080078
      },
      {
        "id": 51,
        "name": "Estevan Airport",
        "city": "Estevan",
        "country": "Canada",
        "faa": "CYEN",
        "lat": 49.21030045,
        "lon": -102.9660034
      },
      {
        "id": 52,
        "name": "Edson Airport",
        "city": "Edson",
        "country": "Canada",
        "faa": "CYET",
        "lat": 53.57889938,
        "lon": -116.4649963
      },
      {
        "id": 53,
        "name": "Eureka Airport",
        "city": "Eureka",
        "country": "Canada",
        "faa": "CYEU",
        "lat": 79.99469757,
        "lon": -85.81420136
      },
      {
        "id": 54,
        "name": "Inuvik Mike Zubko Airport",
        "city": "Inuvik",
        "country": "Canada",
        "faa": "CYEV",
        "lat": 68.30419922,
        "lon": -133.4830017
      },
      {
        "id": 55,
        "name": "Iqaluit Airport",
        "city": "Iqaluit",
        "country": "Canada",
        "faa": "CYFB",
        "lat": 63.756402,
        "lon": -68.555801
      },
      {
        "id": 56,
        "name": "Fredericton Airport",
        "city": "Fredericton",
        "country": "Canada",
        "faa": "CYFC",
        "lat": 45.8689003,
        "lon": -66.53720093
      },
      {
        "id": 57,
        "name": "Forestville Airport",
        "city": "Forestville",
        "country": "Canada",
        "faa": "CYFE",
        "lat": 48.74610138,
        "lon": -69.09719849
      },
      {
        "id": 58,
        "name": "Flin Flon Airport",
        "city": "Flin Flon",
        "country": "Canada",
        "faa": "CYFO",
        "lat": 54.67810059,
        "lon": -101.6819992
      },
      {
        "id": 59,
        "name": "Fort Resolution Airport",
        "city": "Fort Resolution",
        "country": "Canada",
        "faa": "CYFR",
        "lat": 61.18080139,
        "lon": -113.6900024
      },
      {
        "id": 60,
        "name": "Fort Simpson Airport",
        "city": "Fort Simpson",
        "country": "Canada",
        "faa": "CYFS",
        "lat": 61.7602005,
        "lon": -121.2369995
      },
      {
        "id": 61,
        "name": "Kingston Norman Rogers Airport",
        "city": "Kingston",
        "country": "Canada",
        "faa": "CYGK",
        "lat": 44.22529984,
        "lon": -76.59690094
      },
      {
        "id": 62,
        "name": "La Grande Rivière Airport",
        "city": "La Grande Riviere",
        "country": "Canada",
        "faa": "CYGL",
        "lat": 53.62530136,
        "lon": -77.70420074
      },
      {
        "id": 63,
        "name": "Gaspé (Michel-Pouliot) Airport",
        "city": "Gaspe",
        "country": "Canada",
        "faa": "CYGP",
        "lat": 48.77529907,
        "lon": -64.47859955
      },
      {
        "id": 64,
        "name": "Geraldton Greenstone Regional Airport",
        "city": "Geraldton",
        "country": "Canada",
        "faa": "CYGQ",
        "lat": 49.77830124,
        "lon": -86.93939972
      },
      {
        "id": 65,
        "name": "Îles-de-la-Madeleine Airport",
        "city": "Iles De La Madeleine",
        "country": "Canada",
        "faa": "CYGR",
        "lat": 47.42470169,
        "lon": -61.77809906
      },
      {
        "id": 66,
        "name": "Hudson Bay Airport",
        "city": "Hudson Bay",
        "country": "Canada",
        "faa": "CYHB",
        "lat": 52.81669998,
        "lon": -102.310997
      },
      {
        "id": 67,
        "name": "Dryden Regional Airport",
        "city": "Dryden",
        "country": "Canada",
        "faa": "CYHD",
        "lat": 49.831699,
        "lon": -92.744202
      },
      {
        "id": 68,
        "name": "Ulukhaktok Holman Airport",
        "city": "Holman Island",
        "country": "Canada",
        "faa": "CYHI",
        "lat": 70.76280212,
        "lon": -117.8059998
      },
      {
        "id": 69,
        "name": "Gjoa Haven Airport",
        "city": "Gjoa Haven",
        "country": "Canada",
        "faa": "CYHK",
        "lat": 68.63559723,
        "lon": -95.84970093
      },
      {
        "id": 70,
        "name": "John C. Munro Hamilton International Airport",
        "city": "Hamilton",
        "country": "Canada",
        "faa": "CYHM",
        "lat": 43.17359924,
        "lon": -79.93499756
      },
      {
        "id": 71,
        "name": "Montréal / Saint-Hubert Airport",
        "city": "Montreal",
        "country": "Canada",
        "faa": "CYHU",
        "lat": 45.51750183,
        "lon": -73.41690063
      },
      {
        "id": 72,
        "name": "Hay River / Merlyn Carter Airport",
        "city": "Hay River",
        "country": "Canada",
        "faa": "CYHY",
        "lat": 60.83969879,
        "lon": -115.7829971
      },
      {
        "id": 73,
        "name": "Halifax / Stanfield International Airport",
        "city": "Halifax",
        "country": "Canada",
        "faa": "CYHZ",
        "lat": 44.88079834,
        "lon": -63.50859833
      },
      {
        "id": 74,
        "name": "Atikokan Municipal Airport",
        "city": "Atikokan",
        "country": "Canada",
        "faa": "CYIB",
        "lat": 48.77389908,
        "lon": -91.63860321
      },
      {
        "id": 75,
        "name": "Pond Inlet Airport",
        "city": "Pond Inlet",
        "country": "Canada",
        "faa": "CYIO",
        "lat": 72.6832962,
        "lon": -77.96669769
      },
      {
        "id": 76,
        "name": "St Jean Airport",
        "city": "St. Jean",
        "country": "Canada",
        "faa": "CYJN",
        "lat": 45.29439926,
        "lon": -73.28109741
      },
      {
        "id": 77,
        "name": "Stephenville Airport",
        "city": "Stephenville",
        "country": "Canada",
        "faa": "CYJT",
        "lat": 48.5442009,
        "lon": -58.54999924
      },
      {
        "id": 78,
        "name": "Kamloops Airport",
        "city": "Kamloops",
        "country": "Canada",
        "faa": "CYKA",
        "lat": 50.70220184,
        "lon": -120.4440002
      },
      {
        "id": 79,
        "name": "Waterloo Airport",
        "city": "Waterloo",
        "country": "Canada",
        "faa": "CYKF",
        "lat": 43.46080017,
        "lon": -80.37860107
      },
      {
        "id": 80,
        "name": "Schefferville Airport",
        "city": "Schefferville",
        "country": "Canada",
        "faa": "CYKL",
        "lat": 54.80530167,
        "lon": -66.80529785
      },
      {
        "id": 81,
        "name": "Kindersley Airport",
        "city": "Kindersley",
        "country": "Canada",
        "faa": "CYKY",
        "lat": 51.51750183,
        "lon": -109.1809998
      },
      {
        "id": 82,
        "name": "Buttonville Municipal Airport",
        "city": "Toronto",
        "country": "Canada",
        "faa": "CYKZ",
        "lat": 43.86220169,
        "lon": -79.37000275
      },
      {
        "id": 83,
        "name": "Chapleau Airport",
        "city": "Chapleau",
        "country": "Canada",
        "faa": "CYLD",
        "lat": 47.81999969,
        "lon": -83.34670258
      },
      {
        "id": 84,
        "name": "Meadow Lake Airport",
        "city": "Meadow Lake",
        "country": "Canada",
        "faa": "CYLJ",
        "lat": 54.12530136,
        "lon": -108.5230026
      },
      {
        "id": 85,
        "name": "Lloydminster Airport",
        "city": "Lloydminster",
        "country": "Canada",
        "faa": "CYLL",
        "lat": 53.30920029,
        "lon": -110.072998
      },
      {
        "id": 86,
        "name": "Alert Airport",
        "city": "Alert",
        "country": "Canada",
        "faa": "CYLT",
        "lat": 82.51779938,
        "lon": -62.2806015
      },
      {
        "id": 87,
        "name": "Kelowna International Airport",
        "city": "Kelowna",
        "country": "Canada",
        "faa": "CYLW",
        "lat": 49.95610046,
        "lon": -119.3779984
      },
      {
        "id": 88,
        "name": "Mayo Airport",
        "city": "Mayo",
        "country": "Canada",
        "faa": "CYMA",
        "lat": 63.61640167,
        "lon": -135.8679962
      },
      {
        "id": 89,
        "name": "Moose Jaw Air Vice Marshal C. M. McEwen Airport",
        "city": "Moose Jaw",
        "country": "Canada",
        "faa": "CYMJ",
        "lat": 50.33029938,
        "lon": -105.5589981
      },
      {
        "id": 90,
        "name": "Fort McMurray Airport",
        "city": "Fort Mcmurray",
        "country": "Canada",
        "faa": "CYMM",
        "lat": 56.65330124,
        "lon": -111.2220001
      },
      {
        "id": 91,
        "name": "Moosonee Airport",
        "city": "Moosonee",
        "country": "Canada",
        "faa": "CYMO",
        "lat": 51.29109955,
        "lon": -80.60780334
      },
      {
        "id": 92,
        "name": "Maniwaki Airport",
        "city": "Maniwaki",
        "country": "Canada",
        "faa": "CYMW",
        "lat": 46.27280045,
        "lon": -75.99060059
      },
      {
        "id": 93,
        "name": "Montreal International (Mirabel) Airport",
        "city": "Montreal",
        "country": "Canada",
        "faa": "CYMX",
        "lat": 45.679501,
        "lon": -74.038696
      },
      {
        "id": 94,
        "name": "Natashquan Airport",
        "city": "Natashquan",
        "country": "Canada",
        "faa": "CYNA",
        "lat": 50.18999863,
        "lon": -61.78919983
      },
      {
        "id": 95,
        "name": "Ottawa / Gatineau Airport",
        "city": "Gatineau",
        "country": "Canada",
        "faa": "CYND",
        "lat": 45.52170181,
        "lon": -75.56359863
      },
      {
        "id": 96,
        "name": "Matagami Airport",
        "city": "Matagami",
        "country": "Canada",
        "faa": "CYNM",
        "lat": 49.76169968,
        "lon": -77.80280304
      },
      {
        "id": 97,
        "name": "Old Crow Airport",
        "city": "Old Crow",
        "country": "Canada",
        "faa": "CYOC",
        "lat": 67.57060242,
        "lon": -139.8390045
      },
      {
        "id": 98,
        "name": "CFB Cold Lake",
        "city": "Cold Lake",
        "country": "Canada",
        "faa": "CYOD",
        "lat": 54.40499878,
        "lon": -110.2789993
      },
      {
        "id": 99,
        "name": "High Level Airport",
        "city": "High Level",
        "country": "Canada",
        "faa": "CYOJ",
        "lat": 58.62139893,
        "lon": -117.1650009
      },
      {
        "id": 100,
        "name": "Ottawa Macdonald-Cartier International Airport",
        "city": "Ottawa",
        "country": "Canada",
        "faa": "CYOW",
        "lat": 45.32249832,
        "lon": -75.66919708
      },
      {
        "id": 101,
        "name": "Prince Albert Glass Field",
        "city": "Prince Albert",
        "country": "Canada",
        "faa": "CYPA",
        "lat": 53.21419907,
        "lon": -105.6729965
      },
      {
        "id": 102,
        "name": "Peace River Airport",
        "city": "Peace River",
        "country": "Canada",
        "faa": "CYPE",
        "lat": 56.226898,
        "lon": -117.446999
      },
      {
        "id": 103,
        "name": "Southport Airport",
        "city": "Portage-la-prairie",
        "country": "Canada",
        "faa": "CYPG",
        "lat": 49.903099,
        "lon": -98.273817
      },
      {
        "id": 104,
        "name": "Pitt Meadows Airport",
        "city": "Pitt Meadows",
        "country": "Canada",
        "faa": "CYPK",
        "lat": 49.21609879,
        "lon": -122.7099991
      },
      {
        "id": 105,
        "name": "Pickle Lake Airport",
        "city": "Pickle Lake",
        "country": "Canada",
        "faa": "CYPL",
        "lat": 51.44639969,
        "lon": -90.21420288
      },
      {
        "id": 106,
        "name": "Port Menier Airport",
        "city": "Port Menier",
        "country": "Canada",
        "faa": "CYPN",
        "lat": 49.83639908,
        "lon": -64.28859711
      },
      {
        "id": 107,
        "name": "Peterborough Airport",
        "city": "Peterborough",
        "country": "Canada",
        "faa": "CYPQ",
        "lat": 44.22999954,
        "lon": -78.36329651
      },
      {
        "id": 108,
        "name": "Prince Rupert Airport",
        "city": "Prince Pupert",
        "country": "Canada",
        "faa": "CYPR",
        "lat": 54.28609848,
        "lon": -130.4450073
      },
      {
        "id": 109,
        "name": "Fort Chipewyan Airport",
        "city": "Fort Chipewyan",
        "country": "Canada",
        "faa": "CYPY",
        "lat": 58.76720047,
        "lon": -111.1169968
      },
      {
        "id": 110,
        "name": "Muskoka Airport",
        "city": "Muskoka",
        "country": "Canada",
        "faa": "CYQA",
        "lat": 44.97470093,
        "lon": -79.30329895
      },
      {
        "id": 111,
        "name": "Quebec Jean Lesage International Airport",
        "city": "Quebec",
        "country": "Canada",
        "faa": "CYQB",
        "lat": 46.7911,
        "lon": -71.393303
      },
      {
        "id": 112,
        "name": "Red Deer Regional Airport",
        "city": "Red Deer Industrial",
        "country": "Canada",
        "faa": "CYQF",
        "lat": 52.18220139,
        "lon": -113.8939972
      },
      {
        "id": 113,
        "name": "Windsor Airport",
        "city": "Windsor",
        "country": "Canada",
        "faa": "CYQG",
        "lat": 42.27560043,
        "lon": -82.95559692
      },
      {
        "id": 114,
        "name": "Watson Lake Airport",
        "city": "Watson Lake",
        "country": "Canada",
        "faa": "CYQH",
        "lat": 60.11640167,
        "lon": -128.8220062
      },
      {
        "id": 115,
        "name": "Kenora Airport",
        "city": "Kenora",
        "country": "Canada",
        "faa": "CYQK",
        "lat": 49.78829956,
        "lon": -94.36309814
      },
      {
        "id": 116,
        "name": "Lethbridge County Airport",
        "city": "Lethbridge",
        "country": "Canada",
        "faa": "CYQL",
        "lat": 49.63029861,
        "lon": -112.8000031
      },
      {
        "id": 117,
        "name": "Greater Moncton International Airport",
        "city": "Moncton",
        "country": "Canada",
        "faa": "CYQM",
        "lat": 46.11220169,
        "lon": -64.6785965
      },
      {
        "id": 119,
        "name": "Comox Airport",
        "city": "Comox",
        "country": "Canada",
        "faa": "CYQQ",
        "lat": 49.71080017,
        "lon": -124.887001
      },
      {
        "id": 120,
        "name": "Regina International Airport",
        "city": "Regina",
        "country": "Canada",
        "faa": "CYQR",
        "lat": 50.43190002,
        "lon": -104.6660004
      },
      {
        "id": 121,
        "name": "Thunder Bay Airport",
        "city": "Thunder Bay",
        "country": "Canada",
        "faa": "CYQT",
        "lat": 48.37189865,
        "lon": -89.32389832
      },
      {
        "id": 122,
        "name": "Grande Prairie Airport",
        "city": "Grande Prairie",
        "country": "Canada",
        "faa": "CYQU",
        "lat": 55.17969894,
        "lon": -118.8850021
      },
      {
        "id": 123,
        "name": "Yorkton Municipal Airport",
        "city": "Yorkton",
        "country": "Canada",
        "faa": "CYQV",
        "lat": 51.26470184,
        "lon": -102.461998
      },
      {
        "id": 124,
        "name": "North Battleford Airport",
        "city": "North Battleford",
        "country": "Canada",
        "faa": "CYQW",
        "lat": 52.76919937,
        "lon": -108.2440033
      },
      {
        "id": 125,
        "name": "Gander International Airport",
        "city": "Gander",
        "country": "Canada",
        "faa": "CYQX",
        "lat": 48.93690109,
        "lon": -54.56809998
      },
      {
        "id": 126,
        "name": "Sydney / J.A. Douglas McCurdy Airport",
        "city": "Sydney",
        "country": "Canada",
        "faa": "CYQY",
        "lat": 46.1614,
        "lon": -60.047798
      },
      {
        "id": 127,
        "name": "Quesnel Airport",
        "city": "Quesnel",
        "country": "Canada",
        "faa": "CYQZ",
        "lat": 53.02610016,
        "lon": -122.5100021
      },
      {
        "id": 128,
        "name": "Resolute Bay Airport",
        "city": "Resolute",
        "country": "Canada",
        "faa": "CYRB",
        "lat": 74.71690369,
        "lon": -94.9693985
      },
      {
        "id": 129,
        "name": "Rivière-du-Loup Airport",
        "city": "Riviere Du Loup",
        "country": "Canada",
        "faa": "CYRI",
        "lat": 47.76440048,
        "lon": -69.58470154
      },
      {
        "id": 130,
        "name": "Roberval Airport",
        "city": "Roberval",
        "country": "Canada",
        "faa": "CYRJ",
        "lat": 48.52000046,
        "lon": -72.26560211
      },
      {
        "id": 131,
        "name": "Rocky Mountain House Airport",
        "city": "Rocky Mountain House",
        "country": "Canada",
        "faa": "CYRM",
        "lat": 52.42969894,
        "lon": -114.9039993
      },
      {
        "id": 132,
        "name": "Rankin Inlet Airport",
        "city": "Rankin Inlet",
        "country": "Canada",
        "faa": "CYRT",
        "lat": 62.81140137,
        "lon": -92.11579895
      },
      {
        "id": 133,
        "name": "Sudbury Airport",
        "city": "Sudbury",
        "country": "Canada",
        "faa": "CYSB",
        "lat": 46.625,
        "lon": -80.79889679
      },
      {
        "id": 134,
        "name": "Sherbrooke Airport",
        "city": "Sherbrooke",
        "country": "Canada",
        "faa": "CYSC",
        "lat": 45.43859863,
        "lon": -71.69139862
      },
      {
        "id": 135,
        "name": "Saint John Airport",
        "city": "St. John",
        "country": "Canada",
        "faa": "CYSJ",
        "lat": 45.31610107,
        "lon": -65.89029694
      },
      {
        "id": 136,
        "name": "Fort Smith Airport",
        "city": "Fort Smith",
        "country": "Canada",
        "faa": "CYSM",
        "lat": 60.02030182,
        "lon": -111.961998
      },
      {
        "id": 137,
        "name": "Nanisivik Airport",
        "city": "Nanisivik",
        "country": "Canada",
        "faa": "CYSR",
        "lat": 72.982201,
        "lon": -84.613602
      },
      {
        "id": 138,
        "name": "Summerside Airport",
        "city": "Summerside",
        "country": "Canada",
        "faa": "CYSU",
        "lat": 46.44060135,
        "lon": -63.83359909
      },
      {
        "id": 139,
        "name": "Sachs Harbour (David Nasogaluak Jr. Saaryuaq) Airport",
        "city": "Sachs Harbour",
        "country": "Canada",
        "faa": "CYSY",
        "lat": 71.99389648,
        "lon": -125.2429962
      },
      {
        "id": 140,
        "name": "Cape Dorset Airport",
        "city": "Cape Dorset",
        "country": "Canada",
        "faa": "CYTE",
        "lat": 64.23000336,
        "lon": -76.52670288
      },
      {
        "id": 141,
        "name": "Thompson Airport",
        "city": "Thompson",
        "country": "Canada",
        "faa": "CYTH",
        "lat": 55.80110168,
        "lon": -97.86419678
      },
      {
        "id": 142,
        "name": "CFB Trenton",
        "city": "Trenton",
        "country": "Canada",
        "faa": "CYTR",
        "lat": 44.1189003,
        "lon": -77.52809906
      },
      {
        "id": 143,
        "name": "Timmins/Victor M. Power",
        "city": "Timmins",
        "country": "Canada",
        "faa": "CYTS",
        "lat": 48.56969833,
        "lon": -81.37670136
      },
      {
        "id": 144,
        "name": "Billy Bishop Toronto City Centre Airport",
        "city": "Toronto",
        "country": "Canada",
        "faa": "CYTZ",
        "lat": 43.627499,
        "lon": -79.396202
      },
      {
        "id": 145,
        "name": "Tuktoyaktuk Airport",
        "city": "Tuktoyaktuk",
        "country": "Canada",
        "faa": "CYUB",
        "lat": 69.4332962,
        "lon": -133.026001
      },
      {
        "id": 146,
        "name": "Montreal / Pierre Elliott Trudeau International Airport",
        "city": "Montreal",
        "country": "Canada",
        "faa": "CYUL",
        "lat": 45.47060013,
        "lon": -73.74079895
      },
      {
        "id": 147,
        "name": "Repulse Bay Airport",
        "city": "Repulse Bay",
        "country": "Canada",
        "faa": "CYUT",
        "lat": 66.52140045,
        "lon": -86.22470093
      },
      {
        "id": 148,
        "name": "Hall Beach Airport",
        "city": "Hall Beach",
        "country": "Canada",
        "faa": "CYUX",
        "lat": 68.77610016,
        "lon": -81.2425
      },
      {
        "id": 149,
        "name": "Rouyn Noranda Airport",
        "city": "Rouyn",
        "country": "Canada",
        "faa": "CYUY",
        "lat": 48.20610046,
        "lon": -78.83560181
      },
      {
        "id": 150,
        "name": "La Ronge Airport",
        "city": "La Ronge",
        "country": "Canada",
        "faa": "CYVC",
        "lat": 55.15140152,
        "lon": -105.262001
      },
      {
        "id": 151,
        "name": "Vermilion Airport",
        "city": "Vermillion",
        "country": "Canada",
        "faa": "CYVG",
        "lat": 53.35580063,
        "lon": -110.8239975
      },
      {
        "id": 152,
        "name": "Qikiqtarjuaq Airport",
        "city": "Broughton Island",
        "country": "Canada",
        "faa": "CYVM",
        "lat": 67.54579926,
        "lon": -64.03140259
      },
      {
        "id": 153,
        "name": "Val-d'Or Airport",
        "city": "Val D'or",
        "country": "Canada",
        "faa": "CYVO",
        "lat": 48.05329895,
        "lon": -77.78279877
      },
      {
        "id": 154,
        "name": "Kuujjuaq Airport",
        "city": "Quujjuaq",
        "country": "Canada",
        "faa": "CYVP",
        "lat": 58.09609985,
        "lon": -68.42690277
      },
      {
        "id": 155,
        "name": "Norman Wells Airport",
        "city": "Norman Wells",
        "country": "Canada",
        "faa": "CYVQ",
        "lat": 65.28160095,
        "lon": -126.7979965
      },
      {
        "id": 156,
        "name": "Vancouver International Airport",
        "city": "Vancouver",
        "country": "Canada",
        "faa": "CYVR",
        "lat": 49.19390106,
        "lon": -123.1839981
      },
      {
        "id": 157,
        "name": "Buffalo Narrows Airport",
        "city": "Buffalo Narrows",
        "country": "Canada",
        "faa": "CYVT",
        "lat": 55.84189987,
        "lon": -108.4179993
      },
      {
        "id": 158,
        "name": "Wiarton Airport",
        "city": "Wiarton",
        "country": "Canada",
        "faa": "CYVV",
        "lat": 44.7458,
        "lon": -81.107201
      },
      {
        "id": 159,
        "name": "Petawawa Airport",
        "city": "Petawawa",
        "country": "Canada",
        "faa": "CYWA",
        "lat": 45.95220184,
        "lon": -77.31919861
      },
      {
        "id": 160,
        "name": "Winnipeg / James Armstrong Richardson International Airport",
        "city": "Winnipeg",
        "country": "Canada",
        "faa": "CYWG",
        "lat": 49.90999985,
        "lon": -97.23989868
      },
      {
        "id": 161,
        "name": "Wabush Airport",
        "city": "Wabush",
        "country": "Canada",
        "faa": "CYWK",
        "lat": 52.9219017,
        "lon": -66.86440277
      },
      {
        "id": 162,
        "name": "Williams Lake Airport",
        "city": "Williams Lake",
        "country": "Canada",
        "faa": "CYWL",
        "lat": 52.18310165,
        "lon": -122.0540009
      },
      {
        "id": 163,
        "name": "Wrigley Airport",
        "city": "Wrigley",
        "country": "Canada",
        "faa": "CYWY",
        "lat": 63.20940018,
        "lon": -123.4369965
      },
      {
        "id": 164,
        "name": "Cranbrook/Canadian Rockies International Airport",
        "city": "Cranbrook",
        "country": "Canada",
        "faa": "CYXC",
        "lat": 49.6108017,
        "lon": -115.7819977
      },
      {
        "id": 165,
        "name": "Edmonton City Centre (Blatchford Field) Airport",
        "city": "Edmonton",
        "country": "Canada",
        "faa": "CYXD",
        "lat": 53.57249832,
        "lon": -113.5210037
      },
      {
        "id": 166,
        "name": "Saskatoon John G. Diefenbaker International Airport",
        "city": "Saskatoon",
        "country": "Canada",
        "faa": "CYXE",
        "lat": 52.17079926,
        "lon": -106.6999969
      },
      {
        "id": 167,
        "name": "Medicine Hat Airport",
        "city": "Medicine Hat",
        "country": "Canada",
        "faa": "CYXH",
        "lat": 50.01890182,
        "lon": -110.7210007
      },
      {
        "id": 168,
        "name": "Fort St John Airport",
        "city": "Fort Saint John",
        "country": "Canada",
        "faa": "CYXJ",
        "lat": 56.23809814,
        "lon": -120.7399979
      },
      {
        "id": 169,
        "name": "Sioux Lookout Airport",
        "city": "Sioux Lookout",
        "country": "Canada",
        "faa": "CYXL",
        "lat": 50.11389923,
        "lon": -91.90529633
      },
      {
        "id": 170,
        "name": "Pangnirtung Airport",
        "city": "Pangnirtung",
        "country": "Canada",
        "faa": "CYXP",
        "lat": 66.14499664,
        "lon": -65.71360016
      },
      {
        "id": 171,
        "name": "Earlton (Timiskaming Regional) Airport",
        "city": "Earlton",
        "country": "Canada",
        "faa": "CYXR",
        "lat": 47.69740065,
        "lon": -79.84734535
      },
      {
        "id": 172,
        "name": "Prince George Airport",
        "city": "Prince George",
        "country": "Canada",
        "faa": "CYXS",
        "lat": 53.88940048,
        "lon": -122.6790009
      },
      {
        "id": 173,
        "name": "Northwest Regional Airport Terrace-Kitimat",
        "city": "Terrace",
        "country": "Canada",
        "faa": "CYXT",
        "lat": 54.468498,
        "lon": -128.576009
      },
      {
        "id": 174,
        "name": "London Airport",
        "city": "London",
        "country": "Canada",
        "faa": "CYXU",
        "lat": 43.035599,
        "lon": -81.1539
      },
      {
        "id": 175,
        "name": "Abbotsford Airport",
        "city": "Abbotsford",
        "country": "Canada",
        "faa": "CYXX",
        "lat": 49.02529907,
        "lon": -122.3610001
      },
      {
        "id": 176,
        "name": "Whitehorse / Erik Nielsen International Airport",
        "city": "Whitehorse",
        "country": "Canada",
        "faa": "CYXY",
        "lat": 60.70959854,
        "lon": -135.0670013
      },
      {
        "id": 177,
        "name": "North Bay Jack Garland Airport",
        "city": "North Bay",
        "country": "Canada",
        "faa": "CYYB",
        "lat": 46.363602,
        "lon": -79.422798
      },
      {
        "id": 178,
        "name": "Calgary International Airport",
        "city": "Calgary",
        "country": "Canada",
        "faa": "CYYC",
        "lat": 51.11389923,
        "lon": -114.0199966
      },
      {
        "id": 179,
        "name": "Smithers Airport",
        "city": "Smithers",
        "country": "Canada",
        "faa": "CYYD",
        "lat": 54.8246994,
        "lon": -127.1829987
      },
      {
        "id": 180,
        "name": "Fort Nelson Airport",
        "city": "Fort Nelson",
        "country": "Canada",
        "faa": "CYYE",
        "lat": 58.83639908,
        "lon": -122.5970001
      },
      {
        "id": 181,
        "name": "Penticton Airport",
        "city": "Penticton",
        "country": "Canada",
        "faa": "CYYF",
        "lat": 49.46310043,
        "lon": -119.6019974
      },
      {
        "id": 182,
        "name": "Charlottetown Airport",
        "city": "Charlottetown",
        "country": "Canada",
        "faa": "CYYG",
        "lat": 46.29000092,
        "lon": -63.12110138
      },
      {
        "id": 183,
        "name": "Taloyoak Airport",
        "city": "Spence Bay",
        "country": "Canada",
        "faa": "CYYH",
        "lat": 69.54669952,
        "lon": -93.5766983
      },
      {
        "id": 184,
        "name": "Victoria International Airport",
        "city": "Victoria",
        "country": "Canada",
        "faa": "CYYJ",
        "lat": 48.64690018,
        "lon": -123.4260025
      },
      {
        "id": 185,
        "name": "Lynn Lake Airport",
        "city": "Lynn Lake",
        "country": "Canada",
        "faa": "CYYL",
        "lat": 56.86389923,
        "lon": -101.0759964
      },
      {
        "id": 186,
        "name": "Swift Current Airport",
        "city": "Swift Current",
        "country": "Canada",
        "faa": "CYYN",
        "lat": 50.29190063,
        "lon": -107.6910019
      },
      {
        "id": 187,
        "name": "Churchill Airport",
        "city": "Churchill",
        "country": "Canada",
        "faa": "CYYQ",
        "lat": 58.73920059,
        "lon": -94.06500244
      },
      {
        "id": 188,
        "name": "Goose Bay Airport",
        "city": "Goose Bay",
        "country": "Canada",
        "faa": "CYYR",
        "lat": 53.31919861,
        "lon": -60.42580032
      },
      {
        "id": 189,
        "name": "St. John's International Airport",
        "city": "St. John's",
        "country": "Canada",
        "faa": "CYYT",
        "lat": 47.61859894,
        "lon": -52.75189972
      },
      {
        "id": 190,
        "name": "Kapuskasing Airport",
        "city": "Kapuskasing",
        "country": "Canada",
        "faa": "CYYU",
        "lat": 49.41389847,
        "lon": -82.46749878
      },
      {
        "id": 1925,
        "name": "Gerrard Smith International Airport",
        "city": "Cayman Brac",
        "country": "Cayman Islands",
        "faa": "MWCB",
        "lat": 19.68700027,
        "lon": -79.88279724
      },
      {
        "id": 1926,
        "name": "Owen Roberts International Airport",
        "city": "Georgetown",
        "country": "Cayman Islands",
        "faa": "MWCR",
        "lat": 19.2928009,
        "lon": -81.35769653
      },
      {
        "id": 4314,
        "name": "Edward Bodden Airfield",
        "city": "Little Cayman",
        "country": "Cayman Islands",
        "faa": "MWCL",
        "lat": 19.660161,
        "lon": -80.088826
      },
      {
        "id": 888,
        "name": "Bangui M'Poko International Airport",
        "city": "Bangui",
        "country": "Central African Republic",
        "faa": "FEFF",
        "lat": 4.398479939,
        "lon": 18.51880074
      },
      {
        "id": 889,
        "name": "Berbérati Airport",
        "city": "Berberati",
        "country": "Central African Republic",
        "faa": "FEFT",
        "lat": 4.221580029,
        "lon": 15.78639984
      },
      {
        "id": 997,
        "name": "Abeche Airport",
        "city": "Abeche",
        "country": "Chad",
        "faa": "FTTC",
        "lat": 13.84700012,
        "lon": 20.84429932
      },
      {
        "id": 998,
        "name": "Moundou Airport",
        "city": "Moundou",
        "country": "Chad",
        "faa": "FTTD",
        "lat": 8.624409676,
        "lon": 16.07139969
      },
      {
        "id": 2641,
        "name": "Chacalluta Airport",
        "city": "Arica",
        "country": "Chile",
        "faa": "SCAR",
        "lat": -18.348499,
        "lon": -70.338699
      },
      {
        "id": 2642,
        "name": "Balmaceda Airport",
        "city": "Balmaceda",
        "country": "Chile",
        "faa": "SCBA",
        "lat": -45.91609955,
        "lon": -71.6894989
      },
      {
        "id": 2643,
        "name": "El Bosque Airport",
        "city": "Santiago",
        "country": "Chile",
        "faa": "SCBQ",
        "lat": -33.5617981,
        "lon": -70.68840027
      },
      {
        "id": 2644,
        "name": "Chile Chico Airport",
        "city": "Chile Chico",
        "country": "Chile",
        "faa": "SCCC",
        "lat": -46.58330154,
        "lon": -71.68740082
      },
      {
        "id": 2645,
        "name": "El Loa Airport",
        "city": "Calama",
        "country": "Chile",
        "faa": "SCCF",
        "lat": -22.49819946,
        "lon": -68.9036026
      },
      {
        "id": 2646,
        "name": "Gral. Bernardo O´Higgins Airport",
        "city": "Chillan",
        "country": "Chile",
        "faa": "SCCH",
        "lat": -36.58250046,
        "lon": -72.03140259
      },
      {
        "id": 2647,
        "name": "Pdte. Carlos Ibañez del Campo Airport",
        "city": "Punta Arenas",
        "country": "Chile",
        "faa": "SCCI",
        "lat": -53.002602,
        "lon": -70.854599
      },
      {
        "id": 2648,
        "name": "Teniente Vidal Airport",
        "city": "Coyhaique",
        "country": "Chile",
        "faa": "SCCY",
        "lat": -45.59420013,
        "lon": -72.10610199
      },
      {
        "id": 2649,
        "name": "Diego Aracena Airport",
        "city": "Iquique",
        "country": "Chile",
        "faa": "SCDA",
        "lat": -20.53520012,
        "lon": -70.1812973
      },
      {
        "id": 2650,
        "name": "Comodoro Arturo Merino Benítez International Airport",
        "city": "Santiago",
        "country": "Chile",
        "faa": "SCEL",
        "lat": -33.39300156,
        "lon": -70.78579712
      },
      {
        "id": 2651,
        "name": "Andrés Sabella Gálvez International Airport",
        "city": "Antofagasta",
        "country": "Chile",
        "faa": "SCFA",
        "lat": -23.444501,
        "lon": -70.445099
      },
      {
        "id": 2652,
        "name": "Capitan Fuentes Martinez Airport Airport",
        "city": "Porvenir",
        "country": "Chile",
        "faa": "SCFM",
        "lat": -53.25370026,
        "lon": -70.31919861
      },
      {
        "id": 14109,
        "name": "Desierto de Atacama Airport",
        "city": "Copiapo",
        "country": "Chile",
        "faa": "SCAT",
        "lat": -27.26119995,
        "lon": -70.77919769
      },
      {
        "id": 11473,
        "name": "Jinchuan Airport",
        "city": "Jinchuan",
        "country": "China",
        "faa": "ZLJC",
        "lat": 38.54222222,
        "lon": 102.3483333
      },
      {
        "id": 11498,
        "name": "Alashankou Bole (Bortala) airport",
        "city": "Bole",
        "country": "China",
        "faa": "ZWAX",
        "lat": 44.895,
        "lon": 82.3
      },
      {
        "id": 11499,
        "name": "Fuyun Koktokay Airport",
        "city": "Fuyun",
        "country": "China",
        "faa": "ZWFY",
        "lat": 46.804169,
        "lon": 89.512006
      },
      {
        "id": 11545,
        "name": "Linfen Qiaoli Airport",
        "city": "LINFEN",
        "country": "China",
        "faa": "ZBLF",
        "lat": 36.132629,
        "lon": 111.641236
      },
      {
        "id": 11713,
        "name": "Rizhao Shanzihe Airport",
        "city": "Rizhao",
        "country": "China",
        "faa": "ZSRZ",
        "lat": 35.405033,
        "lon": 119.324403
      },
      {
        "id": 11714,
        "name": "Shaxian Airport",
        "city": "Sanming",
        "country": "China",
        "faa": "ZSSM",
        "lat": 26.4263,
        "lon": 117.8336
      },
      {
        "id": 12047,
        "name": "Guangzhou MR Air Base",
        "city": "Guanghua",
        "country": "China",
        "faa": "ZHGH",
        "lat": 32.38940048,
        "lon": 111.6949997
      },
      {
        "id": 12048,
        "name": "Shiyan Wudangshan Airport",
        "city": "Shiyan",
        "country": "China",
        "faa": "ZHSY",
        "lat": 32.591667,
        "lon": 110.907778
      },
      {
        "id": 12050,
        "name": "Huatugou Airport",
        "city": "Mengnai",
        "country": "China",
        "faa": "ZLHX",
        "lat": 38.201984,
        "lon": 90.841495
      },
      {
        "id": 12052,
        "name": "Bengbu Airport",
        "city": "Bengbu",
        "country": "China",
        "faa": "ZSBB",
        "lat": 32.84773333,
        "lon": 117.3202444
      },
      {
        "id": 12053,
        "name": "Rugao Air Base",
        "city": "Rugao",
        "country": "China",
        "faa": "ZSRG",
        "lat": 32.25788498,
        "lon": 120.5016556
      },
      {
        "id": 12054,
        "name": "Wuhu Air Base",
        "city": "Wuhu",
        "country": "China",
        "faa": "ZSWU",
        "lat": 31.3906,
        "lon": 118.408997
      },
      {
        "id": 12055,
        "name": "Shanshan Airport",
        "city": "Shanshan",
        "country": "China",
        "faa": "ZWSS",
        "lat": 42.9117012,
        "lon": 90.24749756
      },
      {
        "id": 12056,
        "name": "Yingkou Lanqi Airport",
        "city": "Yingkou",
        "country": "China",
        "faa": "ZYYK",
        "lat": 40.542524,
        "lon": 122.3586
      },
      {
        "id": 12057,
        "name": "Shenyang Dongta Airport",
        "city": "Shenyang",
        "country": "China",
        "faa": "ZYYY",
        "lat": 41.78440094,
        "lon": 123.4960022
      },
      {
        "id": 12921,
        "name": "Alxa Left Banner Bayanhot Airport",
        "city": "Alxa Left Banner",
        "country": "China",
        "faa": "ZBAL",
        "lat": 38.74831,
        "lon": 105.58858
      },
      {
        "id": 13192,
        "name": "Delingha Airport",
        "city": "Haixi",
        "country": "China",
        "faa": "ZLDL",
        "lat": 37.125286,
        "lon": 97.268658
      },
      {
        "id": 13193,
        "name": "Qionghai Bo'ao Airport",
        "city": "Qionghai",
        "country": "China",
        "faa": "ZJQH",
        "lat": 19.13824,
        "lon": 110.454775
      },
      {
        "id": 13211,
        "name": "Ulanqab Jining Airport",
        "city": "Wulanchabu",
        "country": "China",
        "faa": "ZBUC",
        "lat": 41.129722,
        "lon": 113.108056
      },
      {
        "id": 13229,
        "name": "Shaoyang Wugang Airport",
        "city": "Shaoyang",
        "country": "China",
        "faa": "ZGSY",
        "lat": 26.802,
        "lon": 110.642
      },
      {
        "id": 13257,
        "name": "Renk Airport",
        "city": "Huangshan",
        "country": "China",
        "faa": "HSRN",
        "lat": 11.83246927,
        "lon": 32.81049728
      },
      {
        "id": 13470,
        "name": "Baicheng Chang'an Airport",
        "city": "Baicheng",
        "country": "China",
        "faa": "ZYBA",
        "lat": 45.505278,
        "lon": 123.019722
      },
      {
        "id": 13471,
        "name": "Longnan Chengzhou Airport",
        "city": "Longnan",
        "country": "China",
        "faa": "ZLLN",
        "lat": 33.788,
        "lon": 105.797
      },
      {
        "id": 13472,
        "name": "Shangrao Sanqingshan Airport",
        "city": "Shangrao",
        "country": "China",
        "faa": "ZSSR",
        "lat": 28.3797,
        "lon": 117.9643
      },
      {
        "id": 13473,
        "name": "Songyuan Chaganhu Airport",
        "city": "Songyuan",
        "country": "China",
        "faa": "ZYSQ",
        "lat": 44.938114,
        "lon": 124.550178
      },
      {
        "id": 13474,
        "name": "Jiansanjiang Airport",
        "city": "Jiansanjiang",
        "country": "China",
        "faa": "ZYJS",
        "lat": 47.11,
        "lon": 132.660278
      },
      {
        "id": 13476,
        "name": "Zunyi Maotai Airport",
        "city": "Zunyi",
        "country": "China",
        "faa": "ZUMT",
        "lat": 27.81638,
        "lon": 106.33268
      },
      {
        "id": 13477,
        "name": "Libo Airport",
        "city": "Libo",
        "country": "China",
        "faa": "ZULB",
        "lat": 25.4525,
        "lon": 107.961667
      },
      {
        "id": 13478,
        "name": "Chengde Puning Airport",
        "city": "Chengde",
        "country": "China",
        "faa": "ZBCD",
        "lat": 41.1225,
        "lon": 118.073889
      },
      {
        "id": 13479,
        "name": "Wudalianchi Dedu Airport",
        "city": "Wudalianchi",
        "country": "China",
        "faa": "ZYDU",
        "lat": 48.445,
        "lon": 126.133
      },
      {
        "id": 13480,
        "name": "Ejin Banner-Taolai Airport",
        "city": "Ejin Banner",
        "country": "China",
        "faa": "ZBEN",
        "lat": 42.0155,
        "lon": 101.0005
      },
      {
        "id": 13481,
        "name": "Alxa Right Banner Badanjilin Airport",
        "city": "Alxa Right Banner",
        "country": "China",
        "faa": "ZBAR",
        "lat": 39.225,
        "lon": 101.546
      },
      {
        "id": 13482,
        "name": "Holingol Huolinhe Airport",
        "city": "Holingol",
        "country": "China",
        "faa": "ZBHZ",
        "lat": 45.487222,
        "lon": 119.407222
      },
      {
        "id": 13483,
        "name": "Golog Maqin Airport",
        "city": "Golog",
        "country": "China",
        "faa": "ZLGL",
        "lat": 34.418066,
        "lon": 100.301144
      },
      {
        "id": 13485,
        "name": "Yeerqiang Airport",
        "city": "Yarkant",
        "country": "China",
        "faa": "ZWSC",
        "lat": 38.281055,
        "lon": 77.075192
      },
      {
        "id": 13488,
        "name": "Cangyuan Washan Airport",
        "city": "Cangyuan",
        "country": "China",
        "faa": "ZPCW",
        "lat": 23.273889,
        "lon": 99.373611
      },
      {
        "id": 13489,
        "name": "Lancang Jingmai Airport",
        "city": "Lancang Lahu",
        "country": "China",
        "faa": "ZPJM",
        "lat": 22.415833,
        "lon": 99.786389
      },
      {
        "id": 13490,
        "name": "Ninglang Luguhu Airport",
        "city": "Ninglang",
        "country": "China",
        "faa": "ZPNL",
        "lat": 27.5403,
        "lon": 100.7593
      },
      {
        "id": 13494,
        "name": "Xinzhou Wutaishan Airport",
        "city": "Xinzhou",
        "country": "China",
        "faa": "ZBXZ",
        "lat": 38.597456,
        "lon": 112.969173
      },
      {
        "id": 13496,
        "name": "Chengjisihan Airport",
        "city": "Zhalantun",
        "country": "China",
        "faa": "ZBZL",
        "lat": 47.865833,
        "lon": 122.767503
      },
      {
        "id": 13726,
        "name": "Beijing Xijiao Airport",
        "city": "Beijing",
        "country": "China",
        "faa": "ZBBB",
        "lat": 39.9608,
        "lon": 116.257004
      },
      {
        "id": 14090,
        "name": "Yuanmou Air Base",
        "city": "Yuanmou",
        "country": "China",
        "faa": "ZPYM",
        "lat": 25.73749924,
        "lon": 101.8820038
      },
      {
        "id": 14091,
        "name": "Changsha Datuopu Airport/AFB",
        "city": "Changsha",
        "country": "China",
        "faa": "ZGCS",
        "lat": 28.06889915,
        "lon": 112.9580002
      },
      {
        "id": 14092,
        "name": "Xingcheng Air Base",
        "city": "",
        "country": "China",
        "faa": "ZYXC",
        "lat": 40.58029938,
        "lon": 120.697998
      },
      {
        "id": 7354,
        "name": "Alcides Fernández Airport",
        "city": "Acandi",
        "country": "Colombia",
        "faa": "SKAD",
        "lat": 8.51667,
        "lon": -77.3
      },
      {
        "id": 7355,
        "name": "Los Colonizadores Airport",
        "city": "Saravena",
        "country": "Colombia",
        "faa": "SKSA",
        "lat": 6.951868,
        "lon": -71.857179
      },
      {
        "id": 7359,
        "name": "Villa Garzón Airport",
        "city": "Villa Garzon",
        "country": "Colombia",
        "faa": "SKVG",
        "lat": 0.978767,
        "lon": -76.6056
      },
      {
        "id": 7360,
        "name": "El Bagre Airport",
        "city": "El Bagre",
        "country": "Colombia",
        "faa": "SKEB",
        "lat": 7.59647,
        "lon": -74.8089
      },
      {
        "id": 7361,
        "name": "Juan H White Airport",
        "city": "Caucasia",
        "country": "Colombia",
        "faa": "SKCU",
        "lat": 7.96847,
        "lon": -75.1985
      },
      {
        "id": 7362,
        "name": "Mandinga Airport",
        "city": "Condoto",
        "country": "Colombia",
        "faa": "SKCD",
        "lat": 5.08333,
        "lon": -76.7
      },
      {
        "id": 7363,
        "name": "Golfo de Morrosquillo Airport",
        "city": "Tolu",
        "country": "Colombia",
        "faa": "SKTL",
        "lat": 9.50945,
        "lon": -75.5854
      },
      {
        "id": 8234,
        "name": "Capurganá Airport",
        "city": "Capurgana",
        "country": "Colombia",
        "faa": "SKCA",
        "lat": 8.63333,
        "lon": -77.35
      },
      {
        "id": 11938,
        "name": "Gomez Nino Apiay Air Base",
        "city": "Apiay",
        "country": "Colombia",
        "faa": "SKAP",
        "lat": 4.07607,
        "lon": -73.5627
      },
      {
        "id": 11939,
        "name": "Coveñas Airport",
        "city": "Coveñas",
        "country": "Colombia",
        "faa": "SKCV",
        "lat": 9.40092,
        "lon": -75.6913
      },
      {
        "id": 11940,
        "name": "German Olano Air Base",
        "city": "La Dorada",
        "country": "Colombia",
        "faa": "SKPQ",
        "lat": 5.48361,
        "lon": -74.6574
      },
      {
        "id": 11941,
        "name": "Paz De Ariporo Airport",
        "city": "Paz De Ariporo",
        "country": "Colombia",
        "faa": "SKPZ",
        "lat": 5.87615,
        "lon": -71.8866
      },
      {
        "id": 11942,
        "name": "Tunja Airport",
        "city": "Tunja",
        "country": "Colombia",
        "faa": "SKTJ",
        "lat": 5.54138,
        "lon": -73.3445
      },
      {
        "id": 11943,
        "name": "Tres Esquinas Air Base",
        "city": "Tres Esquinas",
        "country": "Colombia",
        "faa": "SKTQ",
        "lat": 0.7459,
        "lon": -75.234
      },
      {
        "id": 11944,
        "name": "Marandúa Air Base",
        "city": "Marandúa",
        "country": "Colombia",
        "faa": "SKUA",
        "lat": 5.52448,
        "lon": -68.6856
      },
      {
        "id": 12165,
        "name": "Hacaritama Airport",
        "city": "Aguachica",
        "country": "Colombia",
        "faa": "SKAG",
        "lat": 8.247,
        "lon": -73.5814
      },
      {
        "id": 912,
        "name": "Prince Said Ibrahim International Airport",
        "city": "Moroni",
        "country": "Comoros",
        "faa": "FMCH",
        "lat": -11.5337,
        "lon": 43.2719
      },
      {
        "id": 913,
        "name": "Mohéli Bandar Es Eslam Airport",
        "city": "Moheli",
        "country": "Comoros",
        "faa": "FMCI",
        "lat": -12.29810047,
        "lon": 43.76639938
      },
      {
        "id": 914,
        "name": "Ouani Airport",
        "city": "Anjouan",
        "country": "Comoros",
        "faa": "FMCV",
        "lat": -12.13169956,
        "lon": 44.43030167
      },
      {
        "id": 5614,
        "name": "Iconi Airport",
        "city": "Moroni",
        "country": "Comoros",
        "faa": "FMCN",
        "lat": -11.71080017,
        "lon": 43.2439003
      },
      {
        "id": 1872,
        "name": "Buenos Aires Airport",
        "city": "Buenos Aires",
        "country": "Costa Rica",
        "faa": "MRBA",
        "lat": 9.163949,
        "lon": -83.330171
      },
      {
        "id": 1890,
        "name": "Santa Clara De Guapiles Airport",
        "city": "Santa Clara",
        "country": "Costa Rica",
        "faa": "MRSG",
        "lat": 10.28829956,
        "lon": -83.71350098
      },
      {
        "id": 1891,
        "name": "San Vito De Java Airport",
        "city": "San Vito De Jaba",
        "country": "Costa Rica",
        "faa": "MRSV",
        "lat": 8.826109886,
        "lon": -82.95890045
      },
      {
        "id": 5842,
        "name": "Aerotortuguero Airport",
        "city": "Roxana",
        "country": "Costa Rica",
        "faa": "MRAO",
        "lat": 10.42,
        "lon": -83.6095
      },
      {
        "id": 5843,
        "name": "Barra del Colorado Airport",
        "city": "Pococi",
        "country": "Costa Rica",
        "faa": "MRBC",
        "lat": 10.76869965,
        "lon": -83.58560181
      },
      {
        "id": 5844,
        "name": "Cabo Velas Airport",
        "city": "Nicoya",
        "country": "Costa Rica",
        "faa": "MRCV",
        "lat": 10.35569954,
        "lon": -85.85289764
      },
      {
        "id": 5845,
        "name": "Islita Airport",
        "city": "Nandayure",
        "country": "Costa Rica",
        "faa": "MRIA",
        "lat": 9.856109619,
        "lon": -85.3707962
      },
      {
        "id": 5847,
        "name": "Puerto Jimenez Airport",
        "city": "Puerto Jimenez",
        "country": "Costa Rica",
        "faa": "MRPJ",
        "lat": 8.533329964,
        "lon": -83.30000305
      },
      {
        "id": 5848,
        "name": "Tobias Bolanos International Airport",
        "city": "San Jose",
        "country": "Costa Rica",
        "faa": "MRPV",
        "lat": 9.957050323,
        "lon": -84.13980103
      },
      {
        "id": 5849,
        "name": "(Duplicate) Playa Samara Airport",
        "city": "Playa Samara",
        "country": "Costa Rica",
        "faa": "MRSR",
        "lat": 9.87,
        "lon": -85.48
      },
      {
        "id": 6731,
        "name": "Arenal Airport",
        "city": "La Fortuna/San Carlos",
        "country": "Costa Rica",
        "faa": "MRAN",
        "lat": 10.478,
        "lon": -84.634499
      },
      {
        "id": 6732,
        "name": "Tambor Airport",
        "city": "Nicoya",
        "country": "Costa Rica",
        "faa": "MRTR",
        "lat": 9.73852,
        "lon": -85.013802
      },
      {
        "id": 6945,
        "name": "Drake Bay Airport",
        "city": "Puntarenas",
        "country": "Costa Rica",
        "faa": "MRDK",
        "lat": 8.71889019,
        "lon": -83.64170074
      },
      {
        "id": 7297,
        "name": "Playa Samara/Carrillo Airport",
        "city": "Carrillo",
        "country": "Costa Rica",
        "faa": "MRCR",
        "lat": 9.870510101,
        "lon": -85.48139954
      },
      {
        "id": 7343,
        "name": "Codela Airport",
        "city": "Guapiles",
        "country": "Costa Rica",
        "faa": "MRCA",
        "lat": 10.41399956,
        "lon": -85.09169769
      },
      {
        "id": 11897,
        "name": "Upala Airport",
        "city": "Upala",
        "country": "Costa Rica",
        "faa": "MRUP",
        "lat": 10.8922,
        "lon": -85.016197
      },
      {
        "id": 14086,
        "name": "San Isidro del General Airport",
        "city": "San Isidro",
        "country": "Costa Rica",
        "faa": "MRSI",
        "lat": 9.352620125,
        "lon": -83.71309662
      },
      {
        "id": 253,
        "name": "Port Bouet Airport",
        "city": "Abidjan",
        "country": "Cote d'Ivoire",
        "faa": "DIAP",
        "lat": 5.261390209,
        "lon": -3.926290035
      },
      {
        "id": 254,
        "name": "Bouaké Airport",
        "city": "Bouake",
        "country": "Cote d'Ivoire",
        "faa": "DIBK",
        "lat": 7.738800049,
        "lon": -5.07366991
      },
      {
        "id": 255,
        "name": "Daloa Airport",
        "city": "Daloa",
        "country": "Cote d'Ivoire",
        "faa": "DIDL",
        "lat": 6.792809963,
        "lon": -6.473189831
      },
      {
        "id": 256,
        "name": "Korhogo Airport",
        "city": "Korhogo",
        "country": "Cote d'Ivoire",
        "faa": "DIKO",
        "lat": 9.387180328,
        "lon": -5.556660175
      },
      {
        "id": 1200,
        "name": "Dubrovnik Airport",
        "city": "Dubrovnik",
        "country": "Croatia",
        "faa": "LDDU",
        "lat": 42.56140137,
        "lon": 18.26819992
      },
      {
        "id": 1201,
        "name": "Osijek-Čepin Airfield",
        "city": "Cepin",
        "country": "Croatia",
        "faa": "LDOC",
        "lat": 45.5427778,
        "lon": 18.6319444
      },
      {
        "id": 1202,
        "name": "Osijek Airport",
        "city": "Osijek",
        "country": "Croatia",
        "faa": "LDOS",
        "lat": 45.46269989,
        "lon": 18.81019974
      },
      {
        "id": 1203,
        "name": "Pula Airport",
        "city": "Pula",
        "country": "Croatia",
        "faa": "LDPL",
        "lat": 44.89350128,
        "lon": 13.9222002
      },
      {
        "id": 1204,
        "name": "Grobnicko Polje Airport",
        "city": "Grobnik",
        "country": "Croatia",
        "faa": "LDRG",
        "lat": 45.37950134,
        "lon": 14.50380039
      },
      {
        "id": 1205,
        "name": "Rijeka Airport",
        "city": "Rijeka",
        "country": "Croatia",
        "faa": "LDRI",
        "lat": 45.21689987,
        "lon": 14.5703001
      },
      {
        "id": 1206,
        "name": "Split Airport",
        "city": "Split",
        "country": "Croatia",
        "faa": "LDSP",
        "lat": 43.53889847,
        "lon": 16.29800034
      },
      {
        "id": 1207,
        "name": "Varaždin Airport",
        "city": "Varazdin",
        "country": "Croatia",
        "faa": "LDVA",
        "lat": 46.29464722,
        "lon": 16.38293266
      },
      {
        "id": 1208,
        "name": "Zagreb Airport",
        "city": "Zagreb",
        "country": "Croatia",
        "faa": "LDZA",
        "lat": 45.74290085,
        "lon": 16.06879997
      },
      {
        "id": 1197,
        "name": "Larnaca International Airport",
        "city": "Larnaca",
        "country": "Cyprus",
        "faa": "LCLK",
        "lat": 34.87509918,
        "lon": 33.62490082
      },
      {
        "id": 1198,
        "name": "Paphos International Airport",
        "city": "Paphos",
        "country": "Cyprus",
        "faa": "LCPH",
        "lat": 34.7179985,
        "lon": 32.4856987
      },
      {
        "id": 1199,
        "name": "RAF Akrotiri",
        "city": "Akrotiri",
        "country": "Cyprus",
        "faa": "LCRA",
        "lat": 34.590401,
        "lon": 32.9879
      },
      {
        "id": 5780,
        "name": "Ercan International Airport",
        "city": "Nicosia",
        "country": "Cyprus",
        "faa": "LCEN",
        "lat": 35.15470123,
        "lon": 33.49610138
      },
      {
        "id": 14093,
        "name": "Lefkoniko Airport",
        "city": "Geçitkale",
        "country": "Cyprus",
        "faa": "LCGK",
        "lat": 35.235947,
        "lon": 33.724358
      },
      {
        "id": 1573,
        "name": "České Budějovice Airport",
        "city": "Ceske Budejovice",
        "country": "Czech Republic",
        "faa": "LKCS",
        "lat": 48.94639969,
        "lon": 14.42749977
      },
      {
        "id": 1574,
        "name": "Čáslav Air Base",
        "city": "Caslav",
        "country": "Czech Republic",
        "faa": "LKCV",
        "lat": 49.93970108,
        "lon": 15.3817997
      },
      {
        "id": 1575,
        "name": "Hradec Králové Airport",
        "city": "Hradec Kralove",
        "country": "Czech Republic",
        "faa": "LKHK",
        "lat": 50.253201,
        "lon": 15.8452
      },
      {
        "id": 1576,
        "name": "Hořovice Airport",
        "city": "Horovice",
        "country": "Czech Republic",
        "faa": "LKHV",
        "lat": 49.84809875,
        "lon": 13.89350033
      },
      {
        "id": 1577,
        "name": "Kbely Air Base",
        "city": "Praha",
        "country": "Czech Republic",
        "faa": "LKKB",
        "lat": 50.12139893,
        "lon": 14.54360008
      },
      {
        "id": 1578,
        "name": "Kunovice Airport",
        "city": "Kunovice",
        "country": "Czech Republic",
        "faa": "LKKU",
        "lat": 49.02939987,
        "lon": 17.43969917
      },
      {
        "id": 1579,
        "name": "Karlovy Vary International Airport",
        "city": "Karlovy Vary",
        "country": "Czech Republic",
        "faa": "LKKV",
        "lat": 50.20299911,
        "lon": 12.91499996
      },
      {
        "id": 1580,
        "name": "Plzeň-Líně Airport",
        "city": "Line",
        "country": "Czech Republic",
        "faa": "LKLN",
        "lat": 49.67520142,
        "lon": 13.27460003
      },